[
  {
    "name": "47551",
    "plz_name": "Bedburg-Hau",
    "geo_point_2d":
    {
      "lon": 6.20695861505,
      "lat": 51.7581345416
    }
  },
  {
    "name": "52477",
    "plz_name": "Alsdorf",
    "geo_point_2d":
    {
      "lon": 6.17550818828,
      "lat": 50.86861665
    }
  },
  {
    "name": "52159",
    "plz_name": "Roetgen",
    "geo_point_2d":
    {
      "lon": 6.18337503317,
      "lat": 50.6583845345
    }
  },
  {
    "name": "52156",
    "plz_name": "Monschau",
    "geo_point_2d":
    {
      "lon": 6.20863299366,
      "lat": 50.5630704175
    }
  },
  {
    "name": "52152",
    "plz_name": "Simmerath",
    "geo_point_2d":
    {
      "lon": 6.26122056317,
      "lat": 50.6340050941
    }
  },
  {
    "name": "52382",
    "plz_name": "Niederzier",
    "geo_point_2d":
    {
      "lon": 6.47502183863,
      "lat": 50.8930032868
    }
  },
  {
    "name": "54298",
    "plz_name": "Welschbillig, Igel, Aach",
    "geo_point_2d":
    {
      "lon": 6.56819206681,
      "lat": 49.8544920942
    }
  },
  {
    "name": "47506",
    "plz_name": "Neukirchen-Vluyn",
    "geo_point_2d":
    {
      "lon": 6.55025121964,
      "lat": 51.4429065442
    }
  },
  {
    "name": "54647",
    "plz_name": "Dudeldorf",
    "geo_point_2d":
    {
      "lon": 6.64077134288,
      "lat": 49.9766171148
    }
  },
  {
    "name": "54316",
    "plz_name": "Pluwig",
    "geo_point_2d":
    {
      "lon": 6.72578594731,
      "lat": 49.6780471653
    }
  },
  {
    "name": "47139",
    "plz_name": "Duisburg",
    "geo_point_2d":
    {
      "lon": 6.71615567451,
      "lat": 51.4801498119
    }
  },
  {
    "name": "50259",
    "plz_name": "Pulheim",
    "geo_point_2d":
    {
      "lon": 6.7841920298,
      "lat": 51.0001948293
    }
  },
  {
    "name": "40468",
    "plz_name": "Düsseldorf",
    "geo_point_2d":
    {
      "lon": 6.77664833687,
      "lat": 51.2671087043
    }
  },
  {
    "name": "54552",
    "plz_name": "Mehren u.a.",
    "geo_point_2d":
    {
      "lon": 6.87124409704,
      "lat": 50.2048611489
    }
  },
  {
    "name": "40470",
    "plz_name": "Düsseldorf",
    "geo_point_2d":
    {
      "lon": 6.8705586083,
      "lat": 51.1798978863
    }
  },
  {
    "name": "54413",
    "plz_name": "Gusenburg",
    "geo_point_2d":
    {
      "lon": 6.91395418962,
      "lat": 49.7178360328
    }
  },
  {
    "name": "45475",
    "plz_name": "Mülheim an der Ruhr",
    "geo_point_2d":
    {
      "lon": 6.8975005012,
      "lat": 51.4590264054
    }
  },
  {
    "name": "50739",
    "plz_name": "Köln",
    "geo_point_2d":
    {
      "lon": 6.9211374592,
      "lat": 50.9808159033
    }
  },
  {
    "name": "66636",
    "plz_name": "Tholey",
    "geo_point_2d":
    {
      "lon": 6.99536274837,
      "lat": 49.4877346754
    }
  },
  {
    "name": "66117",
    "plz_name": "Saarbrücken",
    "geo_point_2d":
    {
      "lon": 6.96286264356,
      "lat": 49.2223797979
    }
  },
  {
    "name": "50968",
    "plz_name": "Köln",
    "geo_point_2d":
    {
      "lon": 6.96598564039,
      "lat": 50.9020768921
    }
  },
  {
    "name": "56825",
    "plz_name": "Gevenich",
    "geo_point_2d":
    {
      "lon": 7.05869727035,
      "lat": 50.123976472
    }
  },
  {
    "name": "53125",
    "plz_name": "Bonn",
    "geo_point_2d":
    {
      "lon": 7.05726200266,
      "lat": 50.6705503703
    }
  },
  {
    "name": "55767",
    "plz_name": "Brücken, Oberbrombach u.a.",
    "geo_point_2d":
    {
      "lon": 7.16697154333,
      "lat": 49.6785287637
    }
  },
  {
    "name": "48720",
    "plz_name": "Rosendahl",
    "geo_point_2d":
    {
      "lon": 7.19444547936,
      "lat": 52.0142095275
    }
  },
  {
    "name": "79822",
    "plz_name": "Titisee-Neustadt",
    "geo_point_2d":
    {
      "lon": 8.18998308167,
      "lat": 47.9379578374
    }
  },
  {
    "name": "35759",
    "plz_name": "Driedorf",
    "geo_point_2d":
    {
      "lon": 8.17381434933,
      "lat": 50.6363996036
    }
  },
  {
    "name": "76437",
    "plz_name": "Rastatt",
    "geo_point_2d":
    {
      "lon": 8.18564481408,
      "lat": 48.8631584188
    }
  },
  {
    "name": "49143",
    "plz_name": "Bissendorf",
    "geo_point_2d":
    {
      "lon": 8.22045383618,
      "lat": 52.2615159226
    }
  },
  {
    "name": "26122",
    "plz_name": "Oldenburg",
    "geo_point_2d":
    {
      "lon": 8.20871998495,
      "lat": 53.1373573846
    }
  },
  {
    "name": "76532",
    "plz_name": "Baden-Baden",
    "geo_point_2d":
    {
      "lon": 8.24381861872,
      "lat": 48.7764318068
    }
  },
  {
    "name": "79790",
    "plz_name": "Küssaberg",
    "geo_point_2d":
    {
      "lon": 8.32809411636,
      "lat": 47.5983372142
    }
  },
  {
    "name": "55252",
    "plz_name": "Mainz-Kastel",
    "geo_point_2d":
    {
      "lon": 8.28541102449,
      "lat": 50.0240488315
    }
  },
  {
    "name": "76764",
    "plz_name": "Rheinzabern",
    "geo_point_2d":
    {
      "lon": 8.29203612707,
      "lat": 49.1114101748
    }
  },
  {
    "name": "35684",
    "plz_name": "Dillenburg",
    "geo_point_2d":
    {
      "lon": 8.29219642687,
      "lat": 50.7830152569
    }
  },
  {
    "name": "76189",
    "plz_name": "Karlsruhe",
    "geo_point_2d":
    {
      "lon": 8.32483106886,
      "lat": 48.9994999956
    }
  },
  {
    "name": "67577",
    "plz_name": "Alsheim",
    "geo_point_2d":
    {
      "lon": 8.32410803166,
      "lat": 49.7635263027
    }
  },
  {
    "name": "26936",
    "plz_name": "Stadland",
    "geo_point_2d":
    {
      "lon": 8.35218262212,
      "lat": 53.4022171709
    }
  },
  {
    "name": "67365",
    "plz_name": "Schwegenheim",
    "geo_point_2d":
    {
      "lon": 8.3354983608,
      "lat": 49.2765011191
    }
  },
  {
    "name": "59557",
    "plz_name": "Lippstadt",
    "geo_point_2d":
    {
      "lon": 8.34830834462,
      "lat": 51.6601705635
    }
  },
  {
    "name": "27801",
    "plz_name": "Dötlingen",
    "geo_point_2d":
    {
      "lon": 8.41971409621,
      "lat": 52.9657213264
    }
  },
  {
    "name": "59602",
    "plz_name": "Rüthen",
    "geo_point_2d":
    {
      "lon": 8.43991622014,
      "lat": 51.5047688409
    }
  },
  {
    "name": "67117",
    "plz_name": "Limburgerhof",
    "geo_point_2d":
    {
      "lon": 8.39312747528,
      "lat": 49.4152052992
    }
  },
  {
    "name": "57614",
    "plz_name": "Steimel",
    "geo_point_2d":
    {
      "lon": 7.65998876775,
      "lat": 50.6419331696
    }
  },
  {
    "name": "56307",
    "plz_name": "Dürrholz",
    "geo_point_2d":
    {
      "lon": 7.59903598693,
      "lat": 50.5462375863
    }
  },
  {
    "name": "66862",
    "plz_name": "Kindsbach",
    "geo_point_2d":
    {
      "lon": 7.62909800097,
      "lat": 49.4164763427
    }
  },
  {
    "name": "55596",
    "plz_name": "Waldböckelheim",
    "geo_point_2d":
    {
      "lon": 7.71095856625,
      "lat": 49.8144924364
    }
  },
  {
    "name": "56337",
    "plz_name": "Eitelborn",
    "geo_point_2d":
    {
      "lon": 7.72098036586,
      "lat": 50.3834390142
    }
  },
  {
    "name": "67732",
    "plz_name": "Hirschhorn",
    "geo_point_2d":
    {
      "lon": 7.68415137976,
      "lat": 49.5220159327
    }
  },
  {
    "name": "56348",
    "plz_name": "Bornich, Patersberg",
    "geo_point_2d":
    {
      "lon": 7.69625726469,
      "lat": 50.2123336085
    }
  },
  {
    "name": "67759",
    "plz_name": "Nußbach",
    "geo_point_2d":
    {
      "lon": 7.70095382029,
      "lat": 49.6364291003
    }
  },
  {
    "name": "79429",
    "plz_name": "Malsburg-Marzell",
    "geo_point_2d":
    {
      "lon": 7.71992397472,
      "lat": 47.7542148422
    }
  },
  {
    "name": "56349",
    "plz_name": "Kaub",
    "geo_point_2d":
    {
      "lon": 7.78616940844,
      "lat": 50.0930067328
    }
  },
  {
    "name": "67697",
    "plz_name": "Otterberg",
    "geo_point_2d":
    {
      "lon": 7.78788401679,
      "lat": 49.5109082708
    }
  },
  {
    "name": "49497",
    "plz_name": "Mettingen",
    "geo_point_2d":
    {
      "lon": 7.77960329234,
      "lat": 52.3251318967
    }
  },
  {
    "name": "56132",
    "plz_name": "Bad Ems Umland",
    "geo_point_2d":
    {
      "lon": 7.76135034132,
      "lat": 50.338114669
    }
  },
  {
    "name": "65391",
    "plz_name": "Lorch",
    "geo_point_2d":
    {
      "lon": 7.84418905747,
      "lat": 50.0754940615
    }
  },
  {
    "name": "57627",
    "plz_name": "Hachenburg",
    "geo_point_2d":
    {
      "lon": 7.82431560294,
      "lat": 50.6483505041
    }
  },
  {
    "name": "57520",
    "plz_name": "Emmerzhausen, Niederdreisbach, Steinebach",
    "geo_point_2d":
    {
      "lon": 7.85290517536,
      "lat": 50.7346163183
    }
  },
  {
    "name": "49536",
    "plz_name": "Lienen",
    "geo_point_2d":
    {
      "lon": 7.93293067804,
      "lat": 52.1322483924
    }
  },
  {
    "name": "67808",
    "plz_name": "Steinbach, Weitersweiler, Bennhausen, Mörsfeld, Würzweiler, Ruppertsecken u.a.",
    "geo_point_2d":
    {
      "lon": 7.88918462101,
      "lat": 49.6544399941
    }
  },
  {
    "name": "67693",
    "plz_name": "Waldleiningen, Fischbach",
    "geo_point_2d":
    {
      "lon": 7.91058253145,
      "lat": 49.4625316401
    }
  },
  {
    "name": "67728",
    "plz_name": "Münchweiler an der Alsenz",
    "geo_point_2d":
    {
      "lon": 7.88145689805,
      "lat": 49.5417466394
    }
  },
  {
    "name": "59469",
    "plz_name": "Ense",
    "geo_point_2d":
    {
      "lon": 7.97043217445,
      "lat": 51.5018048939
    }
  },
  {
    "name": "57520",
    "plz_name": "Emmerzhausen, Niederdreisbach, Steinebach",
    "geo_point_2d":
    {
      "lon": 7.91674063426,
      "lat": 50.7481831821
    }
  },
  {
    "name": "65582",
    "plz_name": "Diez, Hambach, Aull",
    "geo_point_2d":
    {
      "lon": 7.99977273697,
      "lat": 50.3561798405
    }
  },
  {
    "name": "67468",
    "plz_name": "Frankenstein, Neidenfels, Frankeneck",
    "geo_point_2d":
    {
      "lon": 8.03522766363,
      "lat": 49.3889465308
    }
  },
  {
    "name": "55578",
    "plz_name": "Wallertheim",
    "geo_point_2d":
    {
      "lon": 8.04589515758,
      "lat": 49.8560445546
    }
  },
  {
    "name": "59519",
    "plz_name": "Möhnesee",
    "geo_point_2d":
    {
      "lon": 8.12342932069,
      "lat": 51.4849292355
    }
  },
  {
    "name": "59823",
    "plz_name": "Arnsberg",
    "geo_point_2d":
    {
      "lon": 8.11563710924,
      "lat": 51.4146686217
    }
  },
  {
    "name": "57234",
    "plz_name": "Wilnsdorf",
    "geo_point_2d":
    {
      "lon": 8.11515035504,
      "lat": 50.8304838996
    }
  },
  {
    "name": "67308",
    "plz_name": "Albisheim (Pfrimm)",
    "geo_point_2d":
    {
      "lon": 8.10642158552,
      "lat": 49.6299987816
    }
  },
  {
    "name": "77787",
    "plz_name": "Nordrach",
    "geo_point_2d":
    {
      "lon": 8.10573217762,
      "lat": 48.4146591051
    }
  },
  {
    "name": "67157",
    "plz_name": "Wachenheim an der Weinstraße",
    "geo_point_2d":
    {
      "lon": 8.13657008657,
      "lat": 49.42524335
    }
  },
  {
    "name": "26903",
    "plz_name": "Surwold",
    "geo_point_2d":
    {
      "lon": 7.51683941372,
      "lat": 52.9913365563
    }
  },
  {
    "name": "26465",
    "plz_name": "Langeoog",
    "geo_point_2d":
    {
      "lon": 7.52865474607,
      "lat": 53.7461647619
    }
  },
  {
    "name": "66504",
    "plz_name": "Bottenbach",
    "geo_point_2d":
    {
      "lon": 7.50314696408,
      "lat": 49.1887579611
    }
  },
  {
    "name": "56323",
    "plz_name": "Waldesch, Hünenfeld",
    "geo_point_2d":
    {
      "lon": 7.54805398545,
      "lat": 50.2734514325
    }
  },
  {
    "name": "58515",
    "plz_name": "Lüdenscheid",
    "geo_point_2d":
    {
      "lon": 7.62922347809,
      "lat": 51.1965367341
    }
  },
  {
    "name": "48159",
    "plz_name": "Münster",
    "geo_point_2d":
    {
      "lon": 7.59985828851,
      "lat": 52.0136998524
    }
  },
  {
    "name": "56743",
    "plz_name": "Mendig",
    "geo_point_2d":
    {
      "lon": 7.27340207028,
      "lat": 50.3687864819
    }
  },
  {
    "name": "55776",
    "plz_name": "Berglangenbach, Ruschberg u.a.",
    "geo_point_2d":
    {
      "lon": 7.2715632967,
      "lat": 49.620375355
    }
  },
  {
    "name": "55483",
    "plz_name": "Dickenschied u.a.",
    "geo_point_2d":
    {
      "lon": 7.24807469502,
      "lat": 49.8880583732
    }
  },
  {
    "name": "56751",
    "plz_name": "Polch",
    "geo_point_2d":
    {
      "lon": 7.29730157015,
      "lat": 50.2950813544
    }
  },
  {
    "name": "24783",
    "plz_name": "Osterrönfeld",
    "geo_point_2d":
    {
      "lon": 9.71412121781,
      "lat": 54.2748506759
    }
  },
  {
    "name": "73054",
    "plz_name": "Eislingen/Fils",
    "geo_point_2d":
    {
      "lon": 9.71599074857,
      "lat": 48.7026452938
    }
  },
  {
    "name": "73113",
    "plz_name": "Ottenbach",
    "geo_point_2d":
    {
      "lon": 9.75358389071,
      "lat": 48.7338157767
    }
  },
  {
    "name": "36277",
    "plz_name": "Schenklengsfeld",
    "geo_point_2d":
    {
      "lon": 9.82314832069,
      "lat": 50.8263292006
    }
  },
  {
    "name": "88471",
    "plz_name": "Laupheim",
    "geo_point_2d":
    {
      "lon": 9.85084406484,
      "lat": 48.2238030787
    }
  },
  {
    "name": "37120",
    "plz_name": "Bovenden",
    "geo_point_2d":
    {
      "lon": 9.93824212821,
      "lat": 51.5932135705
    }
  },
  {
    "name": "30629",
    "plz_name": "Hannover",
    "geo_point_2d":
    {
      "lon": 9.86479109018,
      "lat": 52.3969258586
    }
  },
  {
    "name": "29649",
    "plz_name": "Wietzendorf",
    "geo_point_2d":
    {
      "lon": 9.98532401765,
      "lat": 52.9278974046
    }
  },
  {
    "name": "88260",
    "plz_name": "Argenbühl",
    "geo_point_2d":
    {
      "lon": 9.93908804162,
      "lat": 47.7030499257
    }
  },
  {
    "name": "31137",
    "plz_name": "Hildesheim",
    "geo_point_2d":
    {
      "lon": 9.9266676517,
      "lat": 52.1698008361
    }
  },
  {
    "name": "24399",
    "plz_name": "Arnis, Marienhof",
    "geo_point_2d":
    {
      "lon": 9.92246090766,
      "lat": 54.6278458134
    }
  },
  {
    "name": "73566",
    "plz_name": "Bartholomä",
    "geo_point_2d":
    {
      "lon": 9.98094875106,
      "lat": 48.745763771
    }
  },
  {
    "name": "37075",
    "plz_name": "Göttingen",
    "geo_point_2d":
    {
      "lon": 9.9929963736,
      "lat": 51.5404613682
    }
  },
  {
    "name": "97657",
    "plz_name": "Sandberg",
    "geo_point_2d":
    {
      "lon": 10.0099016694,
      "lat": 50.337827057
    }
  },
  {
    "name": "20359",
    "plz_name": "Hamburg",
    "geo_point_2d":
    {
      "lon": 9.9643984285,
      "lat": 53.5503249897
    }
  },
  {
    "name": "73434",
    "plz_name": "Aalen",
    "geo_point_2d":
    {
      "lon": 10.0286861354,
      "lat": 48.8605136707
    }
  },
  {
    "name": "97647",
    "plz_name": "Nordheim v.d. Rhön",
    "geo_point_2d":
    {
      "lon": 10.1559101885,
      "lat": 50.4900367245
    }
  },
  {
    "name": "23812",
    "plz_name": "Wahlstedt",
    "geo_point_2d":
    {
      "lon": 10.1416771247,
      "lat": 53.9440903335
    }
  },
  {
    "name": "24113",
    "plz_name": "Kiel",
    "geo_point_2d":
    {
      "lon": 10.0861491524,
      "lat": 54.2872972414
    }
  },
  {
    "name": "73433",
    "plz_name": "Aalen",
    "geo_point_2d":
    {
      "lon": 10.1086657137,
      "lat": 48.868863862
    }
  },
  {
    "name": "97534",
    "plz_name": "Waigolshausen",
    "geo_point_2d":
    {
      "lon": 10.1412055715,
      "lat": 49.9559054241
    }
  },
  {
    "name": "22159",
    "plz_name": "Hamburg",
    "geo_point_2d":
    {
      "lon": 10.118761118,
      "lat": 53.6138175826
    }
  },
  {
    "name": "89520",
    "plz_name": "Heidenheim an der Brenz",
    "geo_point_2d":
    {
      "lon": 10.1938421214,
      "lat": 48.7300443154
    }
  },
  {
    "name": "99819",
    "plz_name": "Marksuhl, Krauthausen u.a.",
    "geo_point_2d":
    {
      "lon": 10.2339991672,
      "lat": 50.9088551436
    }
  },
  {
    "name": "89168",
    "plz_name": "Niederstotzingen",
    "geo_point_2d":
    {
      "lon": 10.2247343808,
      "lat": 48.5466746019
    }
  },
  {
    "name": "99819",
    "plz_name": "Marksuhl, Krauthausen u.a.",
    "geo_point_2d":
    {
      "lon": 10.2608101545,
      "lat": 51.0227478962
    }
  },
  {
    "name": "37197",
    "plz_name": "Hattorf",
    "geo_point_2d":
    {
      "lon": 10.2440046502,
      "lat": 51.6452589706
    }
  },
  {
    "name": "87779",
    "plz_name": "Trunkelsberg",
    "geo_point_2d":
    {
      "lon": 10.2173279224,
      "lat": 48.0034522848
    }
  },
  {
    "name": "87752",
    "plz_name": "Holzgünz",
    "geo_point_2d":
    {
      "lon": 10.2470026913,
      "lat": 48.0251275788
    }
  },
  {
    "name": "89567",
    "plz_name": "Sontheim an der Brenz",
    "geo_point_2d":
    {
      "lon": 10.2806135386,
      "lat": 48.553632257
    }
  },
  {
    "name": "89428",
    "plz_name": "Syrgenstein",
    "geo_point_2d":
    {
      "lon": 10.288742965,
      "lat": 48.6587805107
    }
  },
  {
    "name": "24638",
    "plz_name": "Schmalensee",
    "geo_point_2d":
    {
      "lon": 10.2838131216,
      "lat": 54.081296022
    }
  },
  {
    "name": "98639",
    "plz_name": "Walldorf",
    "geo_point_2d":
    {
      "lon": 10.3922056386,
      "lat": 50.6294300985
    }
  },
  {
    "name": "38644",
    "plz_name": "Goslar",
    "geo_point_2d":
    {
      "lon": 10.4103447399,
      "lat": 51.9078923638
    }
  },
  {
    "name": "89358",
    "plz_name": "Kammeltal",
    "geo_point_2d":
    {
      "lon": 10.367480513,
      "lat": 48.3733620847
    }
  },
  {
    "name": "24238",
    "plz_name": "Selent",
    "geo_point_2d":
    {
      "lon": 10.4306687727,
      "lat": 54.2720141904
    }
  },
  {
    "name": "86735",
    "plz_name": "Amerdingen",
    "geo_point_2d":
    {
      "lon": 10.4731627239,
      "lat": 48.7474549761
    }
  },
  {
    "name": "96160",
    "plz_name": "Geiselwind",
    "geo_point_2d":
    {
      "lon": 10.478479806,
      "lat": 49.7755034826
    }
  },
  {
    "name": "89365",
    "plz_name": "Röfingen",
    "geo_point_2d":
    {
      "lon": 10.4594066901,
      "lat": 48.4263446343
    }
  },
  {
    "name": "22946",
    "plz_name": "Trittau",
    "geo_point_2d":
    {
      "lon": 10.4451792626,
      "lat": 53.5850931673
    }
  },
  {
    "name": "87742",
    "plz_name": "Apfeltrach",
    "geo_point_2d":
    {
      "lon": 10.4973645248,
      "lat": 47.9964470455
    }
  },
  {
    "name": "91463",
    "plz_name": "Dietersheim",
    "geo_point_2d":
    {
      "lon": 10.5398668007,
      "lat": 49.5471238471
    }
  },
  {
    "name": "38114",
    "plz_name": "Braunschweig",
    "geo_point_2d":
    {
      "lon": 10.5030291533,
      "lat": 52.2821374472
    }
  },
  {
    "name": "67061",
    "plz_name": "Ludwigshafen am Rhein",
    "geo_point_2d":
    {
      "lon": 8.44715823967,
      "lat": 49.4711976175
    }
  },
  {
    "name": "32361",
    "plz_name": "Preußisch Oldendorf",
    "geo_point_2d":
    {
      "lon": 8.50476661662,
      "lat": 52.3112875379
    }
  },
  {
    "name": "33154",
    "plz_name": "Salzkotten",
    "geo_point_2d":
    {
      "lon": 8.60249014468,
      "lat": 51.6743954625
    }
  },
  {
    "name": "35585",
    "plz_name": "Wetzlar",
    "geo_point_2d":
    {
      "lon": 8.50340374608,
      "lat": 50.6173170263
    }
  },
  {
    "name": "64683",
    "plz_name": "Einhausen",
    "geo_point_2d":
    {
      "lon": 8.52857269845,
      "lat": 49.6808006658
    }
  },
  {
    "name": "78662",
    "plz_name": "Bösingen",
    "geo_point_2d":
    {
      "lon": 8.55816620171,
      "lat": 48.2338581408
    }
  },
  {
    "name": "75196",
    "plz_name": "Remchingen",
    "geo_point_2d":
    {
      "lon": 8.57236247089,
      "lat": 48.9419662458
    }
  },
  {
    "name": "75045",
    "plz_name": "Walzbachtal",
    "geo_point_2d":
    {
      "lon": 8.60164291055,
      "lat": 49.0209119164
    }
  },
  {
    "name": "33161",
    "plz_name": "Hövelhof",
    "geo_point_2d":
    {
      "lon": 8.66852028108,
      "lat": 51.8318239299
    }
  },
  {
    "name": "69469",
    "plz_name": "Weinheim",
    "geo_point_2d":
    {
      "lon": 8.67463982033,
      "lat": 49.5418310062
    }
  },
  {
    "name": "28719",
    "plz_name": "Bremen",
    "geo_point_2d":
    {
      "lon": 8.70945722644,
      "lat": 53.1516796722
    }
  },
  {
    "name": "27616",
    "plz_name": "Beverstedt",
    "geo_point_2d":
    {
      "lon": 8.82696959869,
      "lat": 53.4405521421
    }
  },
  {
    "name": "60594",
    "plz_name": "Frankfurt am Main",
    "geo_point_2d":
    {
      "lon": 8.69623809528,
      "lat": 50.1049024678
    }
  },
  {
    "name": "61118",
    "plz_name": "Bad Vilbel",
    "geo_point_2d":
    {
      "lon": 8.74825319311,
      "lat": 50.1913983419
    }
  },
  {
    "name": "33175",
    "plz_name": "Bad Lippspringe",
    "geo_point_2d":
    {
      "lon": 8.82374879998,
      "lat": 51.7867239684
    }
  },
  {
    "name": "61206",
    "plz_name": "Wöllstadt",
    "geo_point_2d":
    {
      "lon": 8.75814559312,
      "lat": 50.2831158995
    }
  },
  {
    "name": "27245",
    "plz_name": "Bahrenborstel, Barenburg, Kirchdorf",
    "geo_point_2d":
    {
      "lon": 8.8160954092,
      "lat": 52.5819861595
    }
  },
  {
    "name": "63150",
    "plz_name": "Heusenstamm",
    "geo_point_2d":
    {
      "lon": 8.80952099613,
      "lat": 50.0473314738
    }
  },
  {
    "name": "32429",
    "plz_name": "Minden",
    "geo_point_2d":
    {
      "lon": 8.85142753967,
      "lat": 52.2704004139
    }
  },
  {
    "name": "32547",
    "plz_name": "Bad Oeynhausen",
    "geo_point_2d":
    {
      "lon": 8.83100560671,
      "lat": 52.1984878962
    }
  },
  {
    "name": "64395",
    "plz_name": "Brensbach",
    "geo_point_2d":
    {
      "lon": 8.88764278217,
      "lat": 49.7689155532
    }
  },
  {
    "name": "64853",
    "plz_name": "Otzberg",
    "geo_point_2d":
    {
      "lon": 8.90023673812,
      "lat": 49.8230310251
    }
  },
  {
    "name": "31595",
    "plz_name": "Steyerberg",
    "geo_point_2d":
    {
      "lon": 8.98227267934,
      "lat": 52.5870494499
    }
  },
  {
    "name": "71069",
    "plz_name": "Sindelfingen",
    "geo_point_2d":
    {
      "lon": 8.95001477255,
      "lat": 48.7071164589
    }
  },
  {
    "name": "25774",
    "plz_name": "Lunden",
    "geo_point_2d":
    {
      "lon": 8.99885317389,
      "lat": 54.3105188431
    }
  },
  {
    "name": "71106",
    "plz_name": "Magstadt",
    "geo_point_2d":
    {
      "lon": 8.97965496354,
      "lat": 48.7451244266
    }
  },
  {
    "name": "28325",
    "plz_name": "Bremen",
    "geo_point_2d":
    {
      "lon": 8.94984163229,
      "lat": 53.0687210573
    }
  },
  {
    "name": "21785",
    "plz_name": "Neuhaus (Oste)",
    "geo_point_2d":
    {
      "lon": 8.9981943327,
      "lat": 53.8060099297
    }
  },
  {
    "name": "27412",
    "plz_name": "Tarmstedt, Breddorf u.a.",
    "geo_point_2d":
    {
      "lon": 9.10281218398,
      "lat": 53.2373208598
    }
  },
  {
    "name": "71739",
    "plz_name": "Oberriexingen",
    "geo_point_2d":
    {
      "lon": 9.02247881082,
      "lat": 48.9363930471
    }
  },
  {
    "name": "74252",
    "plz_name": "Massenbachhausen",
    "geo_point_2d":
    {
      "lon": 9.03372427522,
      "lat": 49.1812124379
    }
  },
  {
    "name": "35279",
    "plz_name": "Neustadt",
    "geo_point_2d":
    {
      "lon": 9.09084407317,
      "lat": 50.8724057356
    }
  },
  {
    "name": "63679",
    "plz_name": "Schotten",
    "geo_point_2d":
    {
      "lon": 9.16036137237,
      "lat": 50.491584272
    }
  },
  {
    "name": "25866",
    "plz_name": "Mildstedt",
    "geo_point_2d":
    {
      "lon": 9.11233278336,
      "lat": 54.4690020154
    }
  },
  {
    "name": "31719",
    "plz_name": "Wiedensahl",
    "geo_point_2d":
    {
      "lon": 9.12840964865,
      "lat": 52.3907327417
    }
  },
  {
    "name": "25785",
    "plz_name": "Nordhastedt",
    "geo_point_2d":
    {
      "lon": 9.18294248867,
      "lat": 54.1481794514
    }
  },
  {
    "name": "70806",
    "plz_name": "Kornwestheim",
    "geo_point_2d":
    {
      "lon": 9.18657029491,
      "lat": 48.8664994598
    }
  },
  {
    "name": "63768",
    "plz_name": "Hösbach",
    "geo_point_2d":
    {
      "lon": 9.21486108125,
      "lat": 50.0150073475
    }
  },
  {
    "name": "71640",
    "plz_name": "Ludwigsburg",
    "geo_point_2d":
    {
      "lon": 9.22569889865,
      "lat": 48.8961551526
    }
  },
  {
    "name": "74731",
    "plz_name": "Walldürn",
    "geo_point_2d":
    {
      "lon": 9.36414903708,
      "lat": 49.5866606673
    }
  },
  {
    "name": "63857",
    "plz_name": "Waldaschaff, Waldaschaffer Forst",
    "geo_point_2d":
    {
      "lon": 9.32214445395,
      "lat": 49.9611244448
    }
  },
  {
    "name": "71332",
    "plz_name": "Waiblingen",
    "geo_point_2d":
    {
      "lon": 9.30841526759,
      "lat": 48.8264151891
    }
  },
  {
    "name": "31867",
    "plz_name": "Pohle, Lauenau, Messenkamp, Hülsede etc",
    "geo_point_2d":
    {
      "lon": 9.3706058906,
      "lat": 52.2591458356
    }
  },
  {
    "name": "74736",
    "plz_name": "Hardheim",
    "geo_point_2d":
    {
      "lon": 9.47967046055,
      "lat": 49.5952086308
    }
  },
  {
    "name": "73230",
    "plz_name": "Kirchheim unter Teck",
    "geo_point_2d":
    {
      "lon": 9.45651170552,
      "lat": 48.6427168392
    }
  },
  {
    "name": "91459",
    "plz_name": "Markt Erlbach",
    "geo_point_2d":
    {
      "lon": 10.6242227074,
      "lat": 49.5008043199
    }
  },
  {
    "name": "91622",
    "plz_name": "Rügland",
    "geo_point_2d":
    {
      "lon": 10.5781767014,
      "lat": 49.4181777667
    }
  },
  {
    "name": "38162",
    "plz_name": "Cremlingen",
    "geo_point_2d":
    {
      "lon": 10.6818154983,
      "lat": 52.262842708
    }
  },
  {
    "name": "38319",
    "plz_name": "Remlingen",
    "geo_point_2d":
    {
      "lon": 10.6556037668,
      "lat": 52.1078867246
    }
  },
  {
    "name": "38165",
    "plz_name": "Lehre",
    "geo_point_2d":
    {
      "lon": 10.6764506352,
      "lat": 52.3404662586
    }
  },
  {
    "name": "29389",
    "plz_name": "Bad Bodenteich",
    "geo_point_2d":
    {
      "lon": 10.6954620955,
      "lat": 52.8437227027
    }
  },
  {
    "name": "91737",
    "plz_name": "Ornbau",
    "geo_point_2d":
    {
      "lon": 10.6552409683,
      "lat": 49.1730352835
    }
  },
  {
    "name": "91586",
    "plz_name": "Lichtenau",
    "geo_point_2d":
    {
      "lon": 10.7049968471,
      "lat": 49.2655202898
    }
  },
  {
    "name": "86685",
    "plz_name": "Huisheim",
    "geo_point_2d":
    {
      "lon": 10.7075735836,
      "lat": 48.8328712257
    }
  },
  {
    "name": "96188",
    "plz_name": "Stettfeld",
    "geo_point_2d":
    {
      "lon": 10.7293893883,
      "lat": 49.974740546
    }
  },
  {
    "name": "86485",
    "plz_name": "Biberbach",
    "geo_point_2d":
    {
      "lon": 10.7858379473,
      "lat": 48.5089520465
    }
  },
  {
    "name": "99100",
    "plz_name": "Großfahner, Dachwig u.a.",
    "geo_point_2d":
    {
      "lon": 10.8355084076,
      "lat": 51.0512433931
    }
  },
  {
    "name": "86925",
    "plz_name": "Fuchstal",
    "geo_point_2d":
    {
      "lon": 10.822723409,
      "lat": 47.9331599758
    }
  },
  {
    "name": "96190",
    "plz_name": "Untermerzbach",
    "geo_point_2d":
    {
      "lon": 10.8396955864,
      "lat": 50.1206734134
    }
  },
  {
    "name": "86507",
    "plz_name": "Oberottmarshausen",
    "geo_point_2d":
    {
      "lon": 10.8637268352,
      "lat": 48.218467505
    }
  },
  {
    "name": "86179",
    "plz_name": "Augsburg",
    "geo_point_2d":
    {
      "lon": 10.9139430762,
      "lat": 48.3002171199
    }
  },
  {
    "name": "91336",
    "plz_name": "Heroldsbach",
    "geo_point_2d":
    {
      "lon": 10.9739037763,
      "lat": 49.7007088051
    }
  },
  {
    "name": "06493",
    "plz_name": "Ballenstedt, Harzgerode",
    "geo_point_2d":
    {
      "lon": 11.0003448803,
      "lat": 51.5986560718
    }
  },
  {
    "name": "90441",
    "plz_name": "Nürnberg",
    "geo_point_2d":
    {
      "lon": 11.0550065896,
      "lat": 49.4264390181
    }
  },
  {
    "name": "24867",
    "plz_name": "Dannewerk",
    "geo_point_2d":
    {
      "lon": 9.49265789762,
      "lat": 54.4765250011
    }
  },
  {
    "name": "73262",
    "plz_name": "Reichenbach an der Fils",
    "geo_point_2d":
    {
      "lon": 9.46723405014,
      "lat": 48.7160631066
    }
  },
  {
    "name": "36364",
    "plz_name": "Bad Salzschlirf",
    "geo_point_2d":
    {
      "lon": 9.50374373046,
      "lat": 50.6318562599
    }
  },
  {
    "name": "34327",
    "plz_name": "Körle",
    "geo_point_2d":
    {
      "lon": 9.53413685756,
      "lat": 51.1757342138
    }
  },
  {
    "name": "24819",
    "plz_name": "Todenbüttel",
    "geo_point_2d":
    {
      "lon": 9.57804083371,
      "lat": 54.1547872428
    }
  },
  {
    "name": "73101",
    "plz_name": "Aichelberg",
    "geo_point_2d":
    {
      "lon": 9.56465789229,
      "lat": 48.6318909908
    }
  },
  {
    "name": "21646",
    "plz_name": "Halvesbostel",
    "geo_point_2d":
    {
      "lon": 9.61237324051,
      "lat": 53.3507616073
    }
  },
  {
    "name": "73087",
    "plz_name": "Bad Boll",
    "geo_point_2d":
    {
      "lon": 9.60690772505,
      "lat": 48.6370441078
    }
  },
  {
    "name": "34286",
    "plz_name": "Spangenberg",
    "geo_point_2d":
    {
      "lon": 9.69365904972,
      "lat": 51.1177090086
    }
  },
  {
    "name": "73344",
    "plz_name": "Gruibingen",
    "geo_point_2d":
    {
      "lon": 9.63019762549,
      "lat": 48.6023836616
    }
  },
  {
    "name": "97854",
    "plz_name": "Steinfeld",
    "geo_point_2d":
    {
      "lon": 9.65020112041,
      "lat": 49.951113565
    }
  },
  {
    "name": "25336",
    "plz_name": "Elmshorn",
    "geo_point_2d":
    {
      "lon": 9.66693463915,
      "lat": 53.7288013922
    }
  },
  {
    "name": "97959",
    "plz_name": "Assamstadt",
    "geo_point_2d":
    {
      "lon": 9.67977177028,
      "lat": 49.4293461944
    }
  },
  {
    "name": "92348",
    "plz_name": "Berg b.Neumarkt i.d.OPf.",
    "geo_point_2d":
    {
      "lon": 11.4429496589,
      "lat": 49.3531749141
    }
  },
  {
    "name": "19053",
    "plz_name": "Schwerin",
    "geo_point_2d":
    {
      "lon": 11.4065330815,
      "lat": 53.6257043626
    }
  },
  {
    "name": "95496",
    "plz_name": "Glashütten",
    "geo_point_2d":
    {
      "lon": 11.4453177075,
      "lat": 49.8896825642
    }
  },
  {
    "name": "85077",
    "plz_name": "Manching",
    "geo_point_2d":
    {
      "lon": 11.5019762022,
      "lat": 48.7156569239
    }
  },
  {
    "name": "85764",
    "plz_name": "Oberschleißheim",
    "geo_point_2d":
    {
      "lon": 11.5572000825,
      "lat": 48.2498030295
    }
  },
  {
    "name": "80634",
    "plz_name": "München",
    "geo_point_2d":
    {
      "lon": 11.5296114602,
      "lat": 48.1492926673
    }
  },
  {
    "name": "85307",
    "plz_name": "Paunzhausen",
    "geo_point_2d":
    {
      "lon": 11.5634418023,
      "lat": 48.474686673
    }
  },
  {
    "name": "85391",
    "plz_name": "Allershausen",
    "geo_point_2d":
    {
      "lon": 11.590388149,
      "lat": 48.433959035
    }
  },
  {
    "name": "85386",
    "plz_name": "Eching",
    "geo_point_2d":
    {
      "lon": 11.6254831713,
      "lat": 48.2970042519
    }
  },
  {
    "name": "80538",
    "plz_name": "München",
    "geo_point_2d":
    {
      "lon": 11.590917701,
      "lat": 48.1444997137
    }
  },
  {
    "name": "39112",
    "plz_name": "Magdeburg",
    "geo_point_2d":
    {
      "lon": 11.6110037056,
      "lat": 52.1106003791
    }
  },
  {
    "name": "06638",
    "plz_name": "Karsdorf",
    "geo_point_2d":
    {
      "lon": 11.6353009871,
      "lat": 51.2744611192
    }
  },
  {
    "name": "95233",
    "plz_name": "Helmbrechts",
    "geo_point_2d":
    {
      "lon": 11.6940595961,
      "lat": 50.2396258591
    }
  },
  {
    "name": "85579",
    "plz_name": "Neubiberg",
    "geo_point_2d":
    {
      "lon": 11.6437765258,
      "lat": 48.0782056344
    }
  },
  {
    "name": "85414",
    "plz_name": "Kirchdorf a.d. Amper",
    "geo_point_2d":
    {
      "lon": 11.6622178302,
      "lat": 48.4591080667
    }
  },
  {
    "name": "92237",
    "plz_name": "Sulzbach-Rosenberg",
    "geo_point_2d":
    {
      "lon": 11.7366536888,
      "lat": 49.5062028293
    }
  },
  {
    "name": "83703",
    "plz_name": "Gmund a. Tegernsee",
    "geo_point_2d":
    {
      "lon": 11.7448349854,
      "lat": 47.7529447225
    }
  },
  {
    "name": "06198",
    "plz_name": "Salzatal",
    "geo_point_2d":
    {
      "lon": 11.7789574529,
      "lat": 51.5328208376
    }
  },
  {
    "name": "95686",
    "plz_name": "Fichtelberg",
    "geo_point_2d":
    {
      "lon": 11.8407711638,
      "lat": 49.9989655512
    }
  },
  {
    "name": "84091",
    "plz_name": "Attenhofen",
    "geo_point_2d":
    {
      "lon": 11.8471344415,
      "lat": 48.6570528586
    }
  },
  {
    "name": "83737",
    "plz_name": "Irschenberg",
    "geo_point_2d":
    {
      "lon": 11.8970122151,
      "lat": 47.8204416808
    }
  },
  {
    "name": "85368",
    "plz_name": "Moosburg a.d. Isar",
    "geo_point_2d":
    {
      "lon": 11.9306818611,
      "lat": 48.4766511567
    }
  },
  {
    "name": "92286",
    "plz_name": "Rieden",
    "geo_point_2d":
    {
      "lon": 11.9295181839,
      "lat": 49.3087154948
    }
  },
  {
    "name": "07919",
    "plz_name": "Kirschkau, Pausa-Mühltroff",
    "geo_point_2d":
    {
      "lon": 11.9193631711,
      "lat": 50.5413719824
    }
  },
  {
    "name": "39590",
    "plz_name": "Tangermünde",
    "geo_point_2d":
    {
      "lon": 11.9478330591,
      "lat": 52.557639799
    }
  },
  {
    "name": "93161",
    "plz_name": "Sinzing",
    "geo_point_2d":
    {
      "lon": 11.9794359268,
      "lat": 48.9847598742
    }
  },
  {
    "name": "06258",
    "plz_name": "Schkopau",
    "geo_point_2d":
    {
      "lon": 12.0410395717,
      "lat": 51.3910568333
    }
  },
  {
    "name": "83075",
    "plz_name": "Bad Feilnbach",
    "geo_point_2d":
    {
      "lon": 11.9995353376,
      "lat": 47.7871129819
    }
  },
  {
    "name": "85659",
    "plz_name": "Forstern",
    "geo_point_2d":
    {
      "lon": 11.9738219947,
      "lat": 48.1799662848
    }
  },
  {
    "name": "84098",
    "plz_name": "Hohenthann",
    "geo_point_2d":
    {
      "lon": 12.0973531918,
      "lat": 48.6599215898
    }
  },
  {
    "name": "83558",
    "plz_name": "Maitenbeth",
    "geo_point_2d":
    {
      "lon": 12.0916608206,
      "lat": 48.1465155299
    }
  },
  {
    "name": "16866",
    "plz_name": "Gumtow, Kyritz u.a.",
    "geo_point_2d":
    {
      "lon": 12.3232149188,
      "lat": 52.9831189693
    }
  },
  {
    "name": "83527",
    "plz_name": "Haag i. OB",
    "geo_point_2d":
    {
      "lon": 12.1719523679,
      "lat": 48.1741246006
    }
  },
  {
    "name": "14715",
    "plz_name": "Milower Land, Schollene, Nennhausen u.a.",
    "geo_point_2d":
    {
      "lon": 12.3769595998,
      "lat": 52.6142482036
    }
  },
  {
    "name": "83131",
    "plz_name": "Nußdorf a. Inn",
    "geo_point_2d":
    {
      "lon": 12.176389517,
      "lat": 47.7286580721
    }
  },
  {
    "name": "93197",
    "plz_name": "Zeitlarn",
    "geo_point_2d":
    {
      "lon": 12.1683144793,
      "lat": 49.1126594041
    }
  },
  {
    "name": "06842",
    "plz_name": "Dessau-Roßlau",
    "geo_point_2d":
    {
      "lon": 12.3002644893,
      "lat": 51.7895794436
    }
  },
  {
    "name": "14728",
    "plz_name": "Rhinow",
    "geo_point_2d":
    {
      "lon": 12.4135037717,
      "lat": 52.736529903
    }
  },
  {
    "name": "06772",
    "plz_name": "Gräfenhainichen",
    "geo_point_2d":
    {
      "lon": 12.3774782488,
      "lat": 51.7262089645
    }
  },
  {
    "name": "04639",
    "plz_name": "Gößnitz",
    "geo_point_2d":
    {
      "lon": 12.4213878355,
      "lat": 50.8715820679
    }
  },
  {
    "name": "04275",
    "plz_name": "Leipzig",
    "geo_point_2d":
    {
      "lon": 12.3720264803,
      "lat": 51.3196082658
    }
  },
  {
    "name": "08115",
    "plz_name": "Lichtentanne",
    "geo_point_2d":
    {
      "lon": 12.4168125931,
      "lat": 50.6701283826
    }
  },
  {
    "name": "04347",
    "plz_name": "Leipzig",
    "geo_point_2d":
    {
      "lon": 12.4267284121,
      "lat": 51.3612978992
    }
  },
  {
    "name": "04299",
    "plz_name": "Leipzig",
    "geo_point_2d":
    {
      "lon": 12.4248337343,
      "lat": 51.3182029617
    }
  },
  {
    "name": "08147",
    "plz_name": "Crinitzberg",
    "geo_point_2d":
    {
      "lon": 12.502156118,
      "lat": 50.5709463519
    }
  },
  {
    "name": "14797",
    "plz_name": "Lehnin",
    "geo_point_2d":
    {
      "lon": 12.6890733148,
      "lat": 52.3290083365
    }
  },
  {
    "name": "92557",
    "plz_name": "Weiding",
    "geo_point_2d":
    {
      "lon": 12.5639753876,
      "lat": 49.4813496758
    }
  },
  {
    "name": "84550",
    "plz_name": "Feichten a.d. Alz",
    "geo_point_2d":
    {
      "lon": 12.5998491034,
      "lat": 48.0888251281
    }
  },
  {
    "name": "08315",
    "plz_name": "Lauter-Bernsbach",
    "geo_point_2d":
    {
      "lon": 12.7358917198,
      "lat": 50.5624806726
    }
  },
  {
    "name": "09224",
    "plz_name": "Chemnitz",
    "geo_point_2d":
    {
      "lon": 12.789785705,
      "lat": 50.8136394391
    }
  },
  {
    "name": "83413",
    "plz_name": "Fridolfing",
    "geo_point_2d":
    {
      "lon": 12.8227481219,
      "lat": 47.9943491972
    }
  },
  {
    "name": "93476",
    "plz_name": "Blaibach",
    "geo_point_2d":
    {
      "lon": 12.8147170397,
      "lat": 49.1625958525
    }
  },
  {
    "name": "94447",
    "plz_name": "Plattling",
    "geo_point_2d":
    {
      "lon": 12.900919654,
      "lat": 48.7832966538
    }
  },
  {
    "name": "09484",
    "plz_name": "Oberwiesenthal",
    "geo_point_2d":
    {
      "lon": 12.9477884802,
      "lat": 50.4407707075
    }
  },
  {
    "name": "94486",
    "plz_name": "Osterhofen",
    "geo_point_2d":
    {
      "lon": 12.9982543156,
      "lat": 48.6825783539
    }
  },
  {
    "name": "17109",
    "plz_name": "Demmin",
    "geo_point_2d":
    {
      "lon": 13.0280003139,
      "lat": 53.9198803402
    }
  },
  {
    "name": "18516",
    "plz_name": "Rakow",
    "geo_point_2d":
    {
      "lon": 13.12851308,
      "lat": 54.0726167587
    }
  },
  {
    "name": "94501",
    "plz_name": "Aldersbach",
    "geo_point_2d":
    {
      "lon": 13.075101429,
      "lat": 48.5780034515
    }
  },
  {
    "name": "14482",
    "plz_name": "Potsdam",
    "geo_point_2d":
    {
      "lon": 13.1042654038,
      "lat": 52.3936609889
    }
  },
  {
    "name": "94551",
    "plz_name": "Lalling",
    "geo_point_2d":
    {
      "lon": 13.1423055848,
      "lat": 48.8536850182
    }
  },
  {
    "name": "94137",
    "plz_name": "Bayerbach",
    "geo_point_2d":
    {
      "lon": 13.1265470341,
      "lat": 48.4133879072
    }
  },
  {
    "name": "09514",
    "plz_name": "Pockau-Lengefeld (Lengefeld)",
    "geo_point_2d":
    {
      "lon": 13.1971226601,
      "lat": 50.7298041864
    }
  },
  {
    "name": "18574",
    "plz_name": "Garz/ Rügen",
    "geo_point_2d":
    {
      "lon": 13.3103467599,
      "lat": 54.2957488947
    }
  },
  {
    "name": "18569",
    "plz_name": "Gingst",
    "geo_point_2d":
    {
      "lon": 13.1622422278,
      "lat": 54.5080807975
    }
  },
  {
    "name": "09618",
    "plz_name": "Brand-Erbisdorf, Großhartmannsdorf",
    "geo_point_2d":
    {
      "lon": 13.3037449131,
      "lat": 50.8195253002
    }
  },
  {
    "name": "94169",
    "plz_name": "Thurmansbang",
    "geo_point_2d":
    {
      "lon": 13.3002783311,
      "lat": 48.7693324772
    }
  },
  {
    "name": "17036",
    "plz_name": "Neubrandenburg",
    "geo_point_2d":
    {
      "lon": 13.312447794,
      "lat": 53.545211311
    }
  },
  {
    "name": "10713",
    "plz_name": "Berlin Wilmersdorf",
    "geo_point_2d":
    {
      "lon": 13.3132795704,
      "lat": 52.485080471
    }
  },
  {
    "name": "10625",
    "plz_name": "Berlin Charlottenburg",
    "geo_point_2d":
    {
      "lon": 13.3147099601,
      "lat": 52.5094775964
    }
  },
  {
    "name": "12247",
    "plz_name": "Berlin Lankwitz",
    "geo_point_2d":
    {
      "lon": 13.3462036392,
      "lat": 52.4394666914
    }
  },
  {
    "name": "09600",
    "plz_name": "Weißenborn, Oberschöna",
    "geo_point_2d":
    {
      "lon": 13.386932582,
      "lat": 50.868571062
    }
  },
  {
    "name": "94481",
    "plz_name": "Grafenau",
    "geo_point_2d":
    {
      "lon": 13.4004943227,
      "lat": 48.8466216697
    }
  },
  {
    "name": "99099",
    "plz_name": "Erfurt",
    "geo_point_2d":
    {
      "lon": 11.0985823673,
      "lat": 50.9500676102
    }
  },
  {
    "name": "86495",
    "plz_name": "Eurasburg",
    "geo_point_2d":
    {
      "lon": 11.1092345797,
      "lat": 48.3317582631
    }
  },
  {
    "name": "90461",
    "plz_name": "Nürnberg",
    "geo_point_2d":
    {
      "lon": 11.0918016009,
      "lat": 49.4274455947
    }
  },
  {
    "name": "90489",
    "plz_name": "Nürnberg",
    "geo_point_2d":
    {
      "lon": 11.0984984523,
      "lat": 49.4580670728
    }
  },
  {
    "name": "82418",
    "plz_name": "Murnau a. Staffelsee",
    "geo_point_2d":
    {
      "lon": 11.1992114771,
      "lat": 47.6802996256
    }
  },
  {
    "name": "86701",
    "plz_name": "Rohrenfels",
    "geo_point_2d":
    {
      "lon": 11.1643005199,
      "lat": 48.6886035134
    }
  },
  {
    "name": "19075",
    "plz_name": "Pampow",
    "geo_point_2d":
    {
      "lon": 11.3303225016,
      "lat": 53.5441497029
    }
  },
  {
    "name": "91355",
    "plz_name": "Hiltpoltstein",
    "geo_point_2d":
    {
      "lon": 11.3159121174,
      "lat": 49.6629547948
    }
  },
  {
    "name": "95359",
    "plz_name": "Kasendorf",
    "geo_point_2d":
    {
      "lon": 11.3454196843,
      "lat": 50.0402888851
    }
  },
  {
    "name": "06571",
    "plz_name": "Roßleben-Wiehe, Gehofen",
    "geo_point_2d":
    {
      "lon": 11.3815379572,
      "lat": 51.2969486029
    }
  },
  {
    "name": "82110",
    "plz_name": "Germering",
    "geo_point_2d":
    {
      "lon": 11.3603435357,
      "lat": 48.1289898905
    }
  },
  {
    "name": "29491",
    "plz_name": "Prezelle",
    "geo_point_2d":
    {
      "lon": 11.4119063975,
      "lat": 52.9565316234
    }
  },
  {
    "name": "91242",
    "plz_name": "Ottensoos",
    "geo_point_2d":
    {
      "lon": 11.3454334136,
      "lat": 49.5028777707
    }
  },
  {
    "name": "06333",
    "plz_name": "Hettstedt, Endorf",
    "geo_point_2d":
    {
      "lon": 11.3743886505,
      "lat": 51.7083194079
    }
  },
  {
    "name": "01833",
    "plz_name": "Stolpen, Dürrröhrsdorf-Dittersbach",
    "geo_point_2d":
    {
      "lon": 14.0579326622,
      "lat": 51.0394202891
    }
  },
  {
    "name": "16306",
    "plz_name": "Biesendahlshof, Berkholz-Meyenburg",
    "geo_point_2d":
    {
      "lon": 14.1656549471,
      "lat": 53.1947412812
    }
  },
  {
    "name": "01906",
    "plz_name": "Burkau",
    "geo_point_2d":
    {
      "lon": 14.2042869235,
      "lat": 51.186312514
    }
  },
  {
    "name": "02627",
    "plz_name": "Weißenberg, Hochkirch u.a.",
    "geo_point_2d":
    {
      "lon": 14.4180161617,
      "lat": 51.2742528348
    }
  },
  {
    "name": "15236",
    "plz_name": "Treplin, Jacobsdorf, Frankfurt (Oder)",
    "geo_point_2d":
    {
      "lon": 14.5159354038,
      "lat": 52.2929920363
    }
  },
  {
    "name": "03149",
    "plz_name": "Forst/ Lausitz",
    "geo_point_2d":
    {
      "lon": 14.6016904738,
      "lat": 51.7260441774
    }
  },
  {
    "name": "02727",
    "plz_name": "Ebersbach-Neugersdorf",
    "geo_point_2d":
    {
      "lon": 14.6102502426,
      "lat": 50.9747372021
    }
  },
  {
    "name": "94121",
    "plz_name": "Salzweg",
    "geo_point_2d":
    {
      "lon": 13.4801963794,
      "lat": 48.6252832796
    }
  },
  {
    "name": "94545",
    "plz_name": "Hohenau",
    "geo_point_2d":
    {
      "lon": 13.5141514656,
      "lat": 48.8581529284
    }
  },
  {
    "name": "03238",
    "plz_name": "Finsterwalde",
    "geo_point_2d":
    {
      "lon": 13.7246362266,
      "lat": 51.5956407472
    }
  },
  {
    "name": "01468",
    "plz_name": "Moritzburg",
    "geo_point_2d":
    {
      "lon": 13.6662985315,
      "lat": 51.1621019731
    }
  },
  {
    "name": "17389",
    "plz_name": "Anklam",
    "geo_point_2d":
    {
      "lon": 13.6974973121,
      "lat": 53.8361781291
    }
  },
  {
    "name": "01945",
    "plz_name": "Ruhland",
    "geo_point_2d":
    {
      "lon": 13.8751440008,
      "lat": 51.4245875422
    }
  },
  {
    "name": "17449",
    "plz_name": "Karlshagen",
    "geo_point_2d":
    {
      "lon": 13.8107165517,
      "lat": 54.1792517332
    }
  },
  {
    "name": "55608",
    "plz_name": "Bergen",
    "geo_point_2d":
    {
      "lon": 7.37737467827,
      "lat": 49.8707222359
    }
  },
  {
    "name": "55608",
    "plz_name": "Bergen",
    "geo_point_2d":
    {
      "lon": 7.40403270784,
      "lat": 49.7790686015
    }
  },
  {
    "name": "49844",
    "plz_name": "Bawinkel",
    "geo_point_2d":
    {
      "lon": 7.42014530841,
      "lat": 52.5901386252
    }
  },
  {
    "name": "49832",
    "plz_name": "Andervenne, Beesten, Freren, Messingen, Thuine",
    "geo_point_2d":
    {
      "lon": 7.51861953463,
      "lat": 52.47224304
    }
  },
  {
    "name": "25488",
    "plz_name": "Holm",
    "geo_point_2d":
    {
      "lon": 9.69452595022,
      "lat": 53.6242491132
    }
  },
  {
    "name": "25337",
    "plz_name": "Elmshorn",
    "geo_point_2d":
    {
      "lon": 9.71067744709,
      "lat": 53.7464161154
    }
  },
  {
    "name": "24354",
    "plz_name": "Kosel, Rieseby u.a.",
    "geo_point_2d":
    {
      "lon": 9.78983413724,
      "lat": 54.5347015957
    }
  },
  {
    "name": "89188",
    "plz_name": "Merklingen",
    "geo_point_2d":
    {
      "lon": 9.75011246747,
      "lat": 48.5185061936
    }
  },
  {
    "name": "97797",
    "plz_name": "Wartmannsroth",
    "geo_point_2d":
    {
      "lon": 9.78256851151,
      "lat": 50.1795628709
    }
  },
  {
    "name": "88433",
    "plz_name": "Schemmerhofen",
    "geo_point_2d":
    {
      "lon": 9.77736808396,
      "lat": 48.1763293378
    }
  },
  {
    "name": "24367",
    "plz_name": "Osterby",
    "geo_point_2d":
    {
      "lon": 9.75888955355,
      "lat": 54.4484228061
    }
  },
  {
    "name": "37124",
    "plz_name": "Rosdorf",
    "geo_point_2d":
    {
      "lon": 9.85385114667,
      "lat": 51.4717236641
    }
  },
  {
    "name": "97297",
    "plz_name": "Waldbüttelbrunn",
    "geo_point_2d":
    {
      "lon": 9.80060666399,
      "lat": 49.7855462556
    }
  },
  {
    "name": "24616",
    "plz_name": "Brokstedt",
    "geo_point_2d":
    {
      "lon": 9.83115408284,
      "lat": 53.9967568454
    }
  },
  {
    "name": "24395",
    "plz_name": "Gelting",
    "geo_point_2d":
    {
      "lon": 9.8987720899,
      "lat": 54.743953924
    }
  },
  {
    "name": "74423",
    "plz_name": "Obersontheim",
    "geo_point_2d":
    {
      "lon": 9.85967531403,
      "lat": 49.0475372324
    }
  },
  {
    "name": "22549",
    "plz_name": "Hamburg",
    "geo_point_2d":
    {
      "lon": 9.85462743752,
      "lat": 53.584191897
    }
  },
  {
    "name": "21079",
    "plz_name": "Hamburg",
    "geo_point_2d":
    {
      "lon": 9.97510565351,
      "lat": 53.4671131927
    }
  },
  {
    "name": "97072",
    "plz_name": "Würzburg",
    "geo_point_2d":
    {
      "lon": 9.93805682496,
      "lat": 49.7823176023
    }
  },
  {
    "name": "97725",
    "plz_name": "Elfershausen",
    "geo_point_2d":
    {
      "lon": 9.97450809964,
      "lat": 50.12943317
    }
  },
  {
    "name": "31084",
    "plz_name": "Freden (Leine)",
    "geo_point_2d":
    {
      "lon": 9.95285747807,
      "lat": 51.9609221226
    }
  },
  {
    "name": "24539",
    "plz_name": "Neumünster",
    "geo_point_2d":
    {
      "lon": 9.99359174355,
      "lat": 54.0466598732
    }
  },
  {
    "name": "97218",
    "plz_name": "Gerbrunn",
    "geo_point_2d":
    {
      "lon": 10.0002749034,
      "lat": 49.7796543608
    }
  },
  {
    "name": "89233",
    "plz_name": "Neu-Ulm",
    "geo_point_2d":
    {
      "lon": 10.0670609572,
      "lat": 48.3810358331
    }
  },
  {
    "name": "97440",
    "plz_name": "Werneck",
    "geo_point_2d":
    {
      "lon": 10.0836009302,
      "lat": 49.9905048875
    }
  },
  {
    "name": "24626",
    "plz_name": "Groß Kummerfeld",
    "geo_point_2d":
    {
      "lon": 10.0906408104,
      "lat": 54.0352654099
    }
  },
  {
    "name": "22889",
    "plz_name": "Tangstedt",
    "geo_point_2d":
    {
      "lon": 10.0864467661,
      "lat": 53.7393878661
    }
  },
  {
    "name": "24229",
    "plz_name": "Dänischenhagen",
    "geo_point_2d":
    {
      "lon": 10.1122794205,
      "lat": 54.4523385783
    }
  },
  {
    "name": "36452",
    "plz_name": "Kaltennordheim",
    "geo_point_2d":
    {
      "lon": 10.1324642185,
      "lat": 50.656563208
    }
  },
  {
    "name": "21445",
    "plz_name": "Wulfsen",
    "geo_point_2d":
    {
      "lon": 10.1367389336,
      "lat": 53.3023676237
    }
  },
  {
    "name": "24159",
    "plz_name": "Kiel",
    "geo_point_2d":
    {
      "lon": 10.1594433241,
      "lat": 54.3964303377
    }
  },
  {
    "name": "23863",
    "plz_name": "Bargfeld-Stegen",
    "geo_point_2d":
    {
      "lon": 10.1748526479,
      "lat": 53.7689103918
    }
  },
  {
    "name": "21441",
    "plz_name": "Garstedt",
    "geo_point_2d":
    {
      "lon": 10.1696037116,
      "lat": 53.2812427094
    }
  },
  {
    "name": "29342",
    "plz_name": "Wienhausen",
    "geo_point_2d":
    {
      "lon": 10.2040457581,
      "lat": 52.5784882218
    }
  },
  {
    "name": "87751",
    "plz_name": "Heimertingen",
    "geo_point_2d":
    {
      "lon": 10.1613143424,
      "lat": 48.0398265042
    }
  },
  {
    "name": "22926",
    "plz_name": "Ahrensburg",
    "geo_point_2d":
    {
      "lon": 10.2368589118,
      "lat": 53.6685129124
    }
  },
  {
    "name": "97506",
    "plz_name": "Grafenrheinfeld",
    "geo_point_2d":
    {
      "lon": 10.2081559349,
      "lat": 49.9940116955
    }
  },
  {
    "name": "38272",
    "plz_name": "Burgdorf",
    "geo_point_2d":
    {
      "lon": 10.2159204094,
      "lat": 52.1433973003
    }
  },
  {
    "name": "97348",
    "plz_name": "Rödelsee",
    "geo_point_2d":
    {
      "lon": 10.2418714715,
      "lat": 49.6644143529
    }
  },
  {
    "name": "23829",
    "plz_name": "Wittenborn",
    "geo_point_2d":
    {
      "lon": 10.2264952253,
      "lat": 53.908858369
    }
  },
  {
    "name": "97640",
    "plz_name": "Oberstreu",
    "geo_point_2d":
    {
      "lon": 10.3305368998,
      "lat": 50.3934909294
    }
  },
  {
    "name": "21423",
    "plz_name": "Winsen",
    "geo_point_2d":
    {
      "lon": 10.2351512917,
      "lat": 53.3061466866
    }
  },
  {
    "name": "87439",
    "plz_name": "Kempten (Allgäu)",
    "geo_point_2d":
    {
      "lon": 10.2790317344,
      "lat": 47.7429947512
    }
  },
  {
    "name": "89447",
    "plz_name": "Zöschingen",
    "geo_point_2d":
    {
      "lon": 10.3121922569,
      "lat": 48.6786446182
    }
  },
  {
    "name": "21391",
    "plz_name": "Reppenstedt, Lüneburg",
    "geo_point_2d":
    {
      "lon": 10.3342235076,
      "lat": 53.2528198285
    }
  },
  {
    "name": "22961",
    "plz_name": "Hoisdorf",
    "geo_point_2d":
    {
      "lon": 10.3430118475,
      "lat": 53.6732368729
    }
  },
  {
    "name": "23847",
    "plz_name": "Lasbek",
    "geo_point_2d":
    {
      "lon": 10.4813153317,
      "lat": 53.7525301614
    }
  },
  {
    "name": "87739",
    "plz_name": "Breitenbrunn",
    "geo_point_2d":
    {
      "lon": 10.3866078117,
      "lat": 48.1342159275
    }
  },
  {
    "name": "99974",
    "plz_name": "Mühlhausen, Unstruttal",
    "geo_point_2d":
    {
      "lon": 10.4620614388,
      "lat": 51.2324993132
    }
  },
  {
    "name": "91567",
    "plz_name": "Herrieden",
    "geo_point_2d":
    {
      "lon": 10.4814663782,
      "lat": 49.2278817851
    }
  },
  {
    "name": "91443",
    "plz_name": "Scheinfeld",
    "geo_point_2d":
    {
      "lon": 10.4750631638,
      "lat": 49.6720351147
    }
  },
  {
    "name": "22959",
    "plz_name": "Linau",
    "geo_point_2d":
    {
      "lon": 10.4723460556,
      "lat": 53.6456240936
    }
  },
  {
    "name": "87653",
    "plz_name": "Eggenthal",
    "geo_point_2d":
    {
      "lon": 10.4907523378,
      "lat": 47.9135302511
    }
  },
  {
    "name": "64584",
    "plz_name": "Biebesheim am Rhein",
    "geo_point_2d":
    {
      "lon": 8.45484788014,
      "lat": 49.7829542283
    }
  },
  {
    "name": "65795",
    "plz_name": "Hattersheim",
    "geo_point_2d":
    {
      "lon": 8.48093424303,
      "lat": 50.0554568384
    }
  },
  {
    "name": "68165",
    "plz_name": "Mannheim",
    "geo_point_2d":
    {
      "lon": 8.48992126131,
      "lat": 49.4799543399
    }
  },
  {
    "name": "61350",
    "plz_name": "Bad Homburg v.d. Höhe",
    "geo_point_2d":
    {
      "lon": 8.56492088191,
      "lat": 50.2465760726
    }
  },
  {
    "name": "68259",
    "plz_name": "Mannheim",
    "geo_point_2d":
    {
      "lon": 8.54697589872,
      "lat": 49.4977442281
    }
  },
  {
    "name": "32369",
    "plz_name": "Rahden",
    "geo_point_2d":
    {
      "lon": 8.62647689921,
      "lat": 52.4568116544
    }
  },
  {
    "name": "72213",
    "plz_name": "Altensteig",
    "geo_point_2d":
    {
      "lon": 8.60181127717,
      "lat": 48.5962279618
    }
  },
  {
    "name": "60529",
    "plz_name": "Frankfurt am Main",
    "geo_point_2d":
    {
      "lon": 8.58012072529,
      "lat": 50.0795700613
    }
  },
  {
    "name": "68535",
    "plz_name": "Edingen-Neckarhausen",
    "geo_point_2d":
    {
      "lon": 8.59931306542,
      "lat": 49.4485342387
    }
  },
  {
    "name": "64342",
    "plz_name": "Seeheim-Jugenheim",
    "geo_point_2d":
    {
      "lon": 8.65999824186,
      "lat": 49.7590032539
    }
  },
  {
    "name": "78266",
    "plz_name": "Büsingen am Hochrhein",
    "geo_point_2d":
    {
      "lon": 8.68938802623,
      "lat": 47.7002239552
    }
  },
  {
    "name": "27711",
    "plz_name": "Osterholz-Scharmbeck",
    "geo_point_2d":
    {
      "lon": 8.79246073155,
      "lat": 53.2557212048
    }
  },
  {
    "name": "32791",
    "plz_name": "Lage",
    "geo_point_2d":
    {
      "lon": 8.77749641301,
      "lat": 51.9822912274
    }
  },
  {
    "name": "33098",
    "plz_name": "Paderborn",
    "geo_point_2d":
    {
      "lon": 8.75301784972,
      "lat": 51.7103635737
    }
  },
  {
    "name": "78262",
    "plz_name": "Gailingen am Hochrhein",
    "geo_point_2d":
    {
      "lon": 8.76691707127,
      "lat": 47.6959091323
    }
  },
  {
    "name": "69250",
    "plz_name": "Schönau",
    "geo_point_2d":
    {
      "lon": 8.80303009177,
      "lat": 49.4437741622
    }
  },
  {
    "name": "63071",
    "plz_name": "Offenbach am Main",
    "geo_point_2d":
    {
      "lon": 8.76566703854,
      "lat": 50.0921452686
    }
  },
  {
    "name": "61138",
    "plz_name": "Niederdorfelden",
    "geo_point_2d":
    {
      "lon": 8.80811648253,
      "lat": 50.183707413
    }
  },
  {
    "name": "34516",
    "plz_name": "Vöhl",
    "geo_point_2d":
    {
      "lon": 8.90738065299,
      "lat": 51.1778305701
    }
  },
  {
    "name": "63179",
    "plz_name": "Obertshausen",
    "geo_point_2d":
    {
      "lon": 8.86232492472,
      "lat": 50.072287872
    }
  },
  {
    "name": "28205",
    "plz_name": "Bremen",
    "geo_point_2d":
    {
      "lon": 8.84463820043,
      "lat": 53.0691149019
    }
  },
  {
    "name": "25821",
    "plz_name": "Bredstedt, Breklum u.a.",
    "geo_point_2d":
    {
      "lon": 8.95658730841,
      "lat": 54.6108836789
    }
  },
  {
    "name": "74374",
    "plz_name": "Zaberfeld",
    "geo_point_2d":
    {
      "lon": 8.9083529251,
      "lat": 49.0621961662
    }
  },
  {
    "name": "25870",
    "plz_name": "Oldenswort",
    "geo_point_2d":
    {
      "lon": 8.93486481506,
      "lat": 54.3689017535
    }
  },
  {
    "name": "28355",
    "plz_name": "Bremen",
    "geo_point_2d":
    {
      "lon": 8.93492887895,
      "lat": 53.0980031512
    }
  },
  {
    "name": "78567",
    "plz_name": "Fridingen an der Donau",
    "geo_point_2d":
    {
      "lon": 8.93253366981,
      "lat": 48.0198413339
    }
  },
  {
    "name": "25917",
    "plz_name": "Leck",
    "geo_point_2d":
    {
      "lon": 9.01312862274,
      "lat": 54.763475498
    }
  },
  {
    "name": "69412",
    "plz_name": "Eberbach",
    "geo_point_2d":
    {
      "lon": 9.00344772441,
      "lat": 49.470505293
    }
  },
  {
    "name": "21772",
    "plz_name": "Stinstedt",
    "geo_point_2d":
    {
      "lon": 8.9718217883,
      "lat": 53.6553874814
    }
  },
  {
    "name": "63796",
    "plz_name": "Kahl am Main",
    "geo_point_2d":
    {
      "lon": 9.01313829482,
      "lat": 50.0855584849
    }
  },
  {
    "name": "71069",
    "plz_name": "Sindelfingen",
    "geo_point_2d":
    {
      "lon": 9.03979860038,
      "lat": 48.7400609793
    }
  },
  {
    "name": "25858",
    "plz_name": "Högel",
    "geo_point_2d":
    {
      "lon": 9.06512363452,
      "lat": 54.6492086865
    }
  },
  {
    "name": "71701",
    "plz_name": "Schwieberdingen",
    "geo_point_2d":
    {
      "lon": 9.07722446454,
      "lat": 48.8769070925
    }
  },
  {
    "name": "70197",
    "plz_name": "Stuttgart",
    "geo_point_2d":
    {
      "lon": 9.11283283486,
      "lat": 48.7711833417
    }
  },
  {
    "name": "78465",
    "plz_name": "Konstanz",
    "geo_point_2d":
    {
      "lon": 9.13682632517,
      "lat": 47.729518276
    }
  },
  {
    "name": "71111",
    "plz_name": "Waldenbuch",
    "geo_point_2d":
    {
      "lon": 9.13071911838,
      "lat": 48.6300928204
    }
  },
  {
    "name": "63843",
    "plz_name": "Niedernberg",
    "geo_point_2d":
    {
      "lon": 9.12143256557,
      "lat": 49.9071773944
    }
  },
  {
    "name": "36325",
    "plz_name": "Feldatal",
    "geo_point_2d":
    {
      "lon": 9.18113285021,
      "lat": 50.6394616657
    }
  },
  {
    "name": "72820",
    "plz_name": "Sonnenbühl",
    "geo_point_2d":
    {
      "lon": 9.19231554906,
      "lat": 48.3823996432
    }
  },
  {
    "name": "70469",
    "plz_name": "Stuttgart",
    "geo_point_2d":
    {
      "lon": 9.15398327494,
      "lat": 48.8110794217
    }
  },
  {
    "name": "70439",
    "plz_name": "Stuttgart",
    "geo_point_2d":
    {
      "lon": 9.14118437131,
      "lat": 48.8372857479
    }
  },
  {
    "name": "25855",
    "plz_name": "Haselund",
    "geo_point_2d":
    {
      "lon": 9.18168197467,
      "lat": 54.5984741268
    }
  },
  {
    "name": "63839",
    "plz_name": "Kleinwallstadt",
    "geo_point_2d":
    {
      "lon": 9.18972840419,
      "lat": 49.8685881447
    }
  },
  {
    "name": "63920",
    "plz_name": "Großheubach",
    "geo_point_2d":
    {
      "lon": 9.23360529471,
      "lat": 49.7353280693
    }
  },
  {
    "name": "74354",
    "plz_name": "Besigheim",
    "geo_point_2d":
    {
      "lon": 9.20810107732,
      "lat": 49.0217479085
    }
  },
  {
    "name": "63856",
    "plz_name": "Bessenbach",
    "geo_point_2d":
    {
      "lon": 9.26130551696,
      "lat": 49.9649978011
    }
  },
  {
    "name": "63936",
    "plz_name": "Schneeberg",
    "geo_point_2d":
    {
      "lon": 9.25560266594,
      "lat": 49.6235350941
    }
  },
  {
    "name": "24983",
    "plz_name": "Handewitt",
    "geo_point_2d":
    {
      "lon": 9.31741503017,
      "lat": 54.7605596991
    }
  },
  {
    "name": "63927",
    "plz_name": "Bürgstadt",
    "geo_point_2d":
    {
      "lon": 9.2989070067,
      "lat": 49.7224128484
    }
  },
  {
    "name": "72649",
    "plz_name": "Wolfschlugen",
    "geo_point_2d":
    {
      "lon": 9.28899463768,
      "lat": 48.6550214037
    }
  },
  {
    "name": "72531",
    "plz_name": "Hohenstein",
    "geo_point_2d":
    {
      "lon": 9.36001839517,
      "lat": 48.3402917074
    }
  },
  {
    "name": "24896",
    "plz_name": "Treia, Ahrenviölfeld",
    "geo_point_2d":
    {
      "lon": 9.31619036022,
      "lat": 54.5187028056
    }
  },
  {
    "name": "24988",
    "plz_name": "Oeversee",
    "geo_point_2d":
    {
      "lon": 9.4297138866,
      "lat": 54.7077183327
    }
  },
  {
    "name": "31555",
    "plz_name": "Suthfeld",
    "geo_point_2d":
    {
      "lon": 9.39959844284,
      "lat": 52.3617887943
    }
  },
  {
    "name": "36280",
    "plz_name": "Oberaula",
    "geo_point_2d":
    {
      "lon": 9.46436557919,
      "lat": 50.8527216486
    }
  },
  {
    "name": "25569",
    "plz_name": "Kremperheide",
    "geo_point_2d":
    {
      "lon": 9.45640113751,
      "lat": 53.8784612182
    }
  },
  {
    "name": "73277",
    "plz_name": "Owen",
    "geo_point_2d":
    {
      "lon": 9.44330946992,
      "lat": 48.586647178
    }
  },
  {
    "name": "49638",
    "plz_name": "Nortrup",
    "geo_point_2d":
    {
      "lon": 7.87578426691,
      "lat": 52.6175243972
    }
  },
  {
    "name": "55450",
    "plz_name": "Langenlonsheim",
    "geo_point_2d":
    {
      "lon": 7.8817663693,
      "lat": 49.9036948883
    }
  },
  {
    "name": "79194",
    "plz_name": "Gundelfingen, Heuweiler",
    "geo_point_2d":
    {
      "lon": 7.89025445423,
      "lat": 48.0355059821
    }
  },
  {
    "name": "77749",
    "plz_name": "Hohberg",
    "geo_point_2d":
    {
      "lon": 7.90821215028,
      "lat": 48.4158133094
    }
  },
  {
    "name": "79106",
    "plz_name": "Freiburg im Breisgau",
    "geo_point_2d":
    {
      "lon": 7.85403121872,
      "lat": 48.0050924297
    }
  },
  {
    "name": "48231",
    "plz_name": "Warendorf",
    "geo_point_2d":
    {
      "lon": 7.95835304015,
      "lat": 51.9474760082
    }
  },
  {
    "name": "76857",
    "plz_name": "Albersweiler, Silz u.a.",
    "geo_point_2d":
    {
      "lon": 7.9453200353,
      "lat": 49.2290229334
    }
  },
  {
    "name": "27498",
    "plz_name": "Helgoland",
    "geo_point_2d":
    {
      "lon": 7.88451207823,
      "lat": 54.1821162551
    }
  },
  {
    "name": "57520",
    "plz_name": "Emmerzhausen, Niederdreisbach, Steinebach",
    "geo_point_2d":
    {
      "lon": 7.97196718134,
      "lat": 50.7070924152
    }
  },
  {
    "name": "57520",
    "plz_name": "Emmerzhausen, Niederdreisbach, Steinebach",
    "geo_point_2d":
    {
      "lon": 7.90690983142,
      "lat": 50.7772266802
    }
  },
  {
    "name": "56472",
    "plz_name": "Nisterau u.a.",
    "geo_point_2d":
    {
      "lon": 7.92965743249,
      "lat": 50.6231397751
    }
  },
  {
    "name": "79286",
    "plz_name": "Glottertal",
    "geo_point_2d":
    {
      "lon": 7.96222139799,
      "lat": 48.0418504083
    }
  },
  {
    "name": "65624",
    "plz_name": "Altendiez",
    "geo_point_2d":
    {
      "lon": 7.96318066953,
      "lat": 50.3711152756
    }
  },
  {
    "name": "76831",
    "plz_name": "Billigheim-Ingenheim, Birkweiler",
    "geo_point_2d":
    {
      "lon": 8.07103924667,
      "lat": 49.1459737427
    }
  },
  {
    "name": "65589",
    "plz_name": "Hadamar",
    "geo_point_2d":
    {
      "lon": 8.05899846317,
      "lat": 50.4604541635
    }
  },
  {
    "name": "77704",
    "plz_name": "Oberkirch",
    "geo_point_2d":
    {
      "lon": 8.06697400578,
      "lat": 48.5215611004
    }
  },
  {
    "name": "65629",
    "plz_name": "Niederneisen",
    "geo_point_2d":
    {
      "lon": 8.04837524464,
      "lat": 50.3331751611
    }
  },
  {
    "name": "79837",
    "plz_name": "St. Blasien, Ibach",
    "geo_point_2d":
    {
      "lon": 8.09528627194,
      "lat": 47.7727804571
    }
  },
  {
    "name": "65554",
    "plz_name": "Limburg",
    "geo_point_2d":
    {
      "lon": 8.08065810622,
      "lat": 50.4352865973
    }
  },
  {
    "name": "65550",
    "plz_name": "Limburg",
    "geo_point_2d":
    {
      "lon": 8.09430544658,
      "lat": 50.3654431343
    }
  },
  {
    "name": "76872",
    "plz_name": "Steinweiler",
    "geo_point_2d":
    {
      "lon": 8.13745008229,
      "lat": 49.0925385284
    }
  },
  {
    "name": "49179",
    "plz_name": "Ostercappeln",
    "geo_point_2d":
    {
      "lon": 8.20364826891,
      "lat": 52.3761572775
    }
  },
  {
    "name": "65396",
    "plz_name": "Walluf",
    "geo_point_2d":
    {
      "lon": 8.1507898309,
      "lat": 50.0458806566
    }
  },
  {
    "name": "76532",
    "plz_name": "Baden-Baden",
    "geo_point_2d":
    {
      "lon": 8.20157254685,
      "lat": 48.800519504
    }
  },
  {
    "name": "77740",
    "plz_name": "Bad Peterstal-Griesbach",
    "geo_point_2d":
    {
      "lon": 8.22881515191,
      "lat": 48.4404642717
    }
  },
  {
    "name": "26123",
    "plz_name": "Oldenburg (Oldenburg)",
    "geo_point_2d":
    {
      "lon": 8.23247990718,
      "lat": 53.152312303
    }
  },
  {
    "name": "76456",
    "plz_name": "Kuppenheim",
    "geo_point_2d":
    {
      "lon": 8.26696815387,
      "lat": 48.8188998425
    }
  },
  {
    "name": "35685",
    "plz_name": "Dillenburg",
    "geo_point_2d":
    {
      "lon": 8.26134442799,
      "lat": 50.771206691
    }
  },
  {
    "name": "35683",
    "plz_name": "Dillenburg",
    "geo_point_2d":
    {
      "lon": 8.28153239618,
      "lat": 50.7430688651
    }
  },
  {
    "name": "49324",
    "plz_name": "Melle",
    "geo_point_2d":
    {
      "lon": 8.33270720955,
      "lat": 52.21153981
    }
  },
  {
    "name": "26931",
    "plz_name": "Elsfleth",
    "geo_point_2d":
    {
      "lon": 8.38854378661,
      "lat": 53.2229267916
    }
  },
  {
    "name": "77773",
    "plz_name": "Schenkenzell",
    "geo_point_2d":
    {
      "lon": 8.35290562108,
      "lat": 48.3315120656
    }
  },
  {
    "name": "61276",
    "plz_name": "Weilrod",
    "geo_point_2d":
    {
      "lon": 8.39185387617,
      "lat": 50.3307104343
    }
  },
  {
    "name": "78089",
    "plz_name": "Unterkirnach",
    "geo_point_2d":
    {
      "lon": 8.38065032727,
      "lat": 48.0982326193
    }
  },
  {
    "name": "76597",
    "plz_name": "Loffenau",
    "geo_point_2d":
    {
      "lon": 8.40392318562,
      "lat": 48.7757925323
    }
  },
  {
    "name": "67065",
    "plz_name": "Ludwigshafen am Rhein",
    "geo_point_2d":
    {
      "lon": 8.42634014239,
      "lat": 49.4542132023
    }
  },
  {
    "name": "36154",
    "plz_name": "Hosenfeld",
    "geo_point_2d":
    {
      "lon": 9.49185914216,
      "lat": 50.5096509621
    }
  },
  {
    "name": "97906",
    "plz_name": "Faulbach",
    "geo_point_2d":
    {
      "lon": 9.45057694047,
      "lat": 49.793766835
    }
  },
  {
    "name": "24991",
    "plz_name": "Großsolt",
    "geo_point_2d":
    {
      "lon": 9.51105972418,
      "lat": 54.710748003
    }
  },
  {
    "name": "97846",
    "plz_name": "Partenstein",
    "geo_point_2d":
    {
      "lon": 9.52021347936,
      "lat": 50.0480034548
    }
  },
  {
    "name": "88085",
    "plz_name": "Langenargen",
    "geo_point_2d":
    {
      "lon": 9.56255953549,
      "lat": 47.6162365433
    }
  },
  {
    "name": "25551",
    "plz_name": "Hohenlockstedt",
    "geo_point_2d":
    {
      "lon": 9.62399551605,
      "lat": 53.993215131
    }
  },
  {
    "name": "36391",
    "plz_name": "Sinntal",
    "geo_point_2d":
    {
      "lon": 9.65196955803,
      "lat": 50.299980575
    }
  },
  {
    "name": "97837",
    "plz_name": "Erlenbach b. Marktheidenfeld",
    "geo_point_2d":
    {
      "lon": 9.64318686708,
      "lat": 49.8226158598
    }
  },
  {
    "name": "97799",
    "plz_name": "Zeitlofs",
    "geo_point_2d":
    {
      "lon": 9.71579498121,
      "lat": 50.2458034396
    }
  },
  {
    "name": "97264",
    "plz_name": "Helmstadt",
    "geo_point_2d":
    {
      "lon": 9.70514180453,
      "lat": 49.7576681826
    }
  },
  {
    "name": "51709",
    "plz_name": "Marienheide",
    "geo_point_2d":
    {
      "lon": 7.53690238029,
      "lat": 51.0759701837
    }
  },
  {
    "name": "44141",
    "plz_name": "Dortmund",
    "geo_point_2d":
    {
      "lon": 7.49985243998,
      "lat": 51.5040564811
    }
  },
  {
    "name": "66509",
    "plz_name": "Rieschweiler-Mühlbach",
    "geo_point_2d":
    {
      "lon": 7.50786566605,
      "lat": 49.2501946668
    }
  },
  {
    "name": "56291",
    "plz_name": "Leiningen",
    "geo_point_2d":
    {
      "lon": 7.5869825891,
      "lat": 50.1003279787
    }
  },
  {
    "name": "67744",
    "plz_name": "Medard, Rathskirchen u.a.",
    "geo_point_2d":
    {
      "lon": 7.58344569813,
      "lat": 49.6684700474
    }
  },
  {
    "name": "56076",
    "plz_name": "Koblenz",
    "geo_point_2d":
    {
      "lon": 7.6277819949,
      "lat": 50.3358872958
    }
  },
  {
    "name": "66953",
    "plz_name": "Pirmasens",
    "geo_point_2d":
    {
      "lon": 7.63288056326,
      "lat": 49.2107473025
    }
  },
  {
    "name": "79589",
    "plz_name": "Binzen",
    "geo_point_2d":
    {
      "lon": 7.62140841616,
      "lat": 47.6344211014
    }
  },
  {
    "name": "49699",
    "plz_name": "Lindern (Oldenburg)",
    "geo_point_2d":
    {
      "lon": 7.77828365934,
      "lat": 52.8334961162
    }
  },
  {
    "name": "56338",
    "plz_name": "Braubach",
    "geo_point_2d":
    {
      "lon": 7.71882406747,
      "lat": 50.2742535778
    }
  },
  {
    "name": "56753",
    "plz_name": "Mertloch, Welling u.a.",
    "geo_point_2d":
    {
      "lon": 7.31636649141,
      "lat": 50.3329625939
    }
  },
  {
    "name": "56598",
    "plz_name": "Rheinbrohl",
    "geo_point_2d":
    {
      "lon": 7.35913777108,
      "lat": 50.5007672468
    }
  },
  {
    "name": "55483",
    "plz_name": "Dickenschied u.a.",
    "geo_point_2d":
    {
      "lon": 7.43258277193,
      "lat": 49.9716308009
    }
  },
  {
    "name": "26605",
    "plz_name": "Aurich",
    "geo_point_2d":
    {
      "lon": 7.54791643751,
      "lat": 53.4627518845
    }
  },
  {
    "name": "06484",
    "plz_name": "Quedlinburg",
    "geo_point_2d":
    {
      "lon": 11.167000745,
      "lat": 51.8022336215
    }
  },
  {
    "name": "82284",
    "plz_name": "Grafrath",
    "geo_point_2d":
    {
      "lon": 11.1669804542,
      "lat": 48.1229801597
    }
  },
  {
    "name": "91364",
    "plz_name": "Unterleinleiter",
    "geo_point_2d":
    {
      "lon": 11.1709120426,
      "lat": 49.8274138305
    }
  },
  {
    "name": "99428",
    "plz_name": "Weimar",
    "geo_point_2d":
    {
      "lon": 11.2395081611,
      "lat": 50.9749460356
    }
  },
  {
    "name": "91322",
    "plz_name": "Gräfenberg",
    "geo_point_2d":
    {
      "lon": 11.2444199638,
      "lat": 49.6624046443
    }
  },
  {
    "name": "07407",
    "plz_name": "Rudolstadt",
    "geo_point_2d":
    {
      "lon": 11.345750859,
      "lat": 50.7519255668
    }
  },
  {
    "name": "96268",
    "plz_name": "Mitwitz",
    "geo_point_2d":
    {
      "lon": 11.2262667032,
      "lat": 50.2506545065
    }
  },
  {
    "name": "91349",
    "plz_name": "Egloffstein",
    "geo_point_2d":
    {
      "lon": 11.2629435189,
      "lat": 49.7138925294
    }
  },
  {
    "name": "39624",
    "plz_name": "Kalbe",
    "geo_point_2d":
    {
      "lon": 11.3747051652,
      "lat": 52.6965797098
    }
  },
  {
    "name": "91327",
    "plz_name": "Gößweinstein",
    "geo_point_2d":
    {
      "lon": 11.3229978877,
      "lat": 49.7612912915
    }
  },
  {
    "name": "85049",
    "plz_name": "Ingolstadt",
    "geo_point_2d":
    {
      "lon": 11.3426685126,
      "lat": 48.7630073956
    }
  },
  {
    "name": "82340",
    "plz_name": "Feldafing",
    "geo_point_2d":
    {
      "lon": 11.292130197,
      "lat": 47.9405974027
    }
  },
  {
    "name": "82131",
    "plz_name": "Gauting",
    "geo_point_2d":
    {
      "lon": 11.3551023701,
      "lat": 48.0606864142
    }
  },
  {
    "name": "91245",
    "plz_name": "Simmelsdorf",
    "geo_point_2d":
    {
      "lon": 11.3443610284,
      "lat": 49.6219549656
    }
  },
  {
    "name": "82152",
    "plz_name": "Planegg/Krailling",
    "geo_point_2d":
    {
      "lon": 11.3994212736,
      "lat": 48.1009310974
    }
  },
  {
    "name": "91282",
    "plz_name": "Betzenstein",
    "geo_point_2d":
    {
      "lon": 11.4154877757,
      "lat": 49.672678065
    }
  },
  {
    "name": "93348",
    "plz_name": "Kirchdorf",
    "geo_point_2d":
    {
      "lon": 11.9141442632,
      "lat": 48.7634645092
    }
  },
  {
    "name": "85617",
    "plz_name": "Aßling",
    "geo_point_2d":
    {
      "lon": 11.9931901814,
      "lat": 47.9913773725
    }
  },
  {
    "name": "85469",
    "plz_name": "Walpertskirchen",
    "geo_point_2d":
    {
      "lon": 11.9766927785,
      "lat": 48.2587741903
    }
  },
  {
    "name": "39319",
    "plz_name": "Jerichow",
    "geo_point_2d":
    {
      "lon": 12.0688836301,
      "lat": 52.481444323
    }
  },
  {
    "name": "07545",
    "plz_name": "Gera",
    "geo_point_2d":
    {
      "lon": 12.0824655173,
      "lat": 50.8799695355
    }
  },
  {
    "name": "84069",
    "plz_name": "Schierling",
    "geo_point_2d":
    {
      "lon": 12.1587365583,
      "lat": 48.825611555
    }
  },
  {
    "name": "18055",
    "plz_name": "Rostock",
    "geo_point_2d":
    {
      "lon": 12.1659323285,
      "lat": 54.0835129947
    }
  },
  {
    "name": "93173",
    "plz_name": "Wenzenbach",
    "geo_point_2d":
    {
      "lon": 12.17720737,
      "lat": 49.0756899787
    }
  },
  {
    "name": "83134",
    "plz_name": "Prutting",
    "geo_point_2d":
    {
      "lon": 12.1916975273,
      "lat": 47.8879239193
    }
  },
  {
    "name": "84169",
    "plz_name": "Altfraunhofen",
    "geo_point_2d":
    {
      "lon": 12.1896264555,
      "lat": 48.4459774411
    }
  },
  {
    "name": "84171",
    "plz_name": "Baierbach",
    "geo_point_2d":
    {
      "lon": 12.1973337286,
      "lat": 48.4143691725
    }
  },
  {
    "name": "06729",
    "plz_name": "Elsteraue",
    "geo_point_2d":
    {
      "lon": 12.2083352415,
      "lat": 51.0867611456
    }
  },
  {
    "name": "93170",
    "plz_name": "Bernhardswald",
    "geo_point_2d":
    {
      "lon": 12.2445365949,
      "lat": 49.1067581602
    }
  },
  {
    "name": "83564",
    "plz_name": "Soyen",
    "geo_point_2d":
    {
      "lon": 12.2147296428,
      "lat": 48.1044910386
    }
  },
  {
    "name": "83536",
    "plz_name": "Gars a. Inn",
    "geo_point_2d":
    {
      "lon": 12.2639700552,
      "lat": 48.1552148441
    }
  },
  {
    "name": "92431",
    "plz_name": "Neunburg vorm Wald",
    "geo_point_2d":
    {
      "lon": 12.3603789865,
      "lat": 49.3449298522
    }
  },
  {
    "name": "08451",
    "plz_name": "Crimmitschau",
    "geo_point_2d":
    {
      "lon": 12.3580717069,
      "lat": 50.8118389171
    }
  },
  {
    "name": "93086",
    "plz_name": "Wörth an der Donau",
    "geo_point_2d":
    {
      "lon": 12.4218288848,
      "lat": 49.0046607462
    }
  },
  {
    "name": "04157",
    "plz_name": "Leipzig",
    "geo_point_2d":
    {
      "lon": 12.3668242474,
      "lat": 51.3749738049
    }
  },
  {
    "name": "93191",
    "plz_name": "Rettenbach",
    "geo_point_2d":
    {
      "lon": 12.4569344366,
      "lat": 49.0636331198
    }
  },
  {
    "name": "08056",
    "plz_name": "Zwickau",
    "geo_point_2d":
    {
      "lon": 12.4838791204,
      "lat": 50.7051758126
    }
  },
  {
    "name": "92693",
    "plz_name": "Eslarn",
    "geo_point_2d":
    {
      "lon": 12.5249231691,
      "lat": 49.5794184339
    }
  },
  {
    "name": "83308",
    "plz_name": "Trostberg",
    "geo_point_2d":
    {
      "lon": 12.5656244866,
      "lat": 48.0312602552
    }
  },
  {
    "name": "93488",
    "plz_name": "Schönthal",
    "geo_point_2d":
    {
      "lon": 12.6020314878,
      "lat": 49.3540048884
    }
  },
  {
    "name": "93413",
    "plz_name": "Cham",
    "geo_point_2d":
    {
      "lon": 12.6656670562,
      "lat": 49.2099722254
    }
  },
  {
    "name": "94365",
    "plz_name": "Parkstetten",
    "geo_point_2d":
    {
      "lon": 12.6051025215,
      "lat": 48.9201158912
    }
  },
  {
    "name": "84323",
    "plz_name": "Massing",
    "geo_point_2d":
    {
      "lon": 12.6174907702,
      "lat": 48.400544254
    }
  },
  {
    "name": "09322",
    "plz_name": "Penig",
    "geo_point_2d":
    {
      "lon": 12.6910132602,
      "lat": 50.9478356949
    }
  },
  {
    "name": "94354",
    "plz_name": "Haselbach",
    "geo_point_2d":
    {
      "lon": 12.6869861267,
      "lat": 49.0011054063
    }
  },
  {
    "name": "83362",
    "plz_name": "Surberg",
    "geo_point_2d":
    {
      "lon": 12.7022277044,
      "lat": 47.8698524361
    }
  },
  {
    "name": "08340",
    "plz_name": "Schwarzenberg/Erzgeb.",
    "geo_point_2d":
    {
      "lon": 12.7816657041,
      "lat": 50.5191790127
    }
  },
  {
    "name": "09117",
    "plz_name": "Chemnitz",
    "geo_point_2d":
    {
      "lon": 12.8320621092,
      "lat": 50.8230994222
    }
  },
  {
    "name": "09419",
    "plz_name": "Thum",
    "geo_point_2d":
    {
      "lon": 12.9506594442,
      "lat": 50.67441411
    }
  },
  {
    "name": "04861",
    "plz_name": "Torgau",
    "geo_point_2d":
    {
      "lon": 13.0010557212,
      "lat": 51.5063588613
    }
  },
  {
    "name": "94542",
    "plz_name": "Haarbach",
    "geo_point_2d":
    {
      "lon": 13.1448484384,
      "lat": 48.5025292317
    }
  },
  {
    "name": "18573",
    "plz_name": "Samtens",
    "geo_point_2d":
    {
      "lon": 13.2434278758,
      "lat": 54.3599725877
    }
  },
  {
    "name": "14974",
    "plz_name": "Ludwigsfelde",
    "geo_point_2d":
    {
      "lon": 13.2635105439,
      "lat": 52.2914386642
    }
  },
  {
    "name": "94496",
    "plz_name": "Ortenburg",
    "geo_point_2d":
    {
      "lon": 13.2181944984,
      "lat": 48.5545889837
    }
  },
  {
    "name": "94535",
    "plz_name": "Eging a. See",
    "geo_point_2d":
    {
      "lon": 13.2559987575,
      "lat": 48.7093728361
    }
  },
  {
    "name": "94148",
    "plz_name": "Kirchham",
    "geo_point_2d":
    {
      "lon": 13.2526333863,
      "lat": 48.3457136472
    }
  },
  {
    "name": "14195",
    "plz_name": "Berlin Dahlem",
    "geo_point_2d":
    {
      "lon": 13.2829232107,
      "lat": 52.4588976043
    }
  },
  {
    "name": "14167",
    "plz_name": "Berlin Zehlendorf",
    "geo_point_2d":
    {
      "lon": 13.2765608531,
      "lat": 52.421167355
    }
  },
  {
    "name": "09599",
    "plz_name": "Freiberg",
    "geo_point_2d":
    {
      "lon": 13.3340406795,
      "lat": 50.9146221965
    }
  },
  {
    "name": "14059",
    "plz_name": "Berlin Charlottenburg",
    "geo_point_2d":
    {
      "lon": 13.2879125438,
      "lat": 52.5205351499
    }
  },
  {
    "name": "94518",
    "plz_name": "Spiegelau",
    "geo_point_2d":
    {
      "lon": 13.3423410502,
      "lat": 48.9295100674
    }
  },
  {
    "name": "13467",
    "plz_name": "Berlin Hermsdorf",
    "geo_point_2d":
    {
      "lon": 13.3075044028,
      "lat": 52.6171012916
    }
  },
  {
    "name": "10553",
    "plz_name": "Berlin Moabit",
    "geo_point_2d":
    {
      "lon": 13.3214907475,
      "lat": 52.5305335704
    }
  },
  {
    "name": "10623",
    "plz_name": "Berlin Charlottenburg",
    "geo_point_2d":
    {
      "lon": 13.3273882269,
      "lat": 52.5088713376
    }
  },
  {
    "name": "94152",
    "plz_name": "Neuhaus a. Inn",
    "geo_point_2d":
    {
      "lon": 13.4114178643,
      "lat": 48.4500252706
    }
  },
  {
    "name": "12053",
    "plz_name": "Berlin Neukölln",
    "geo_point_2d":
    {
      "lon": 13.4324506957,
      "lat": 52.4770995675
    }
  },
  {
    "name": "54536",
    "plz_name": "Kröv",
    "geo_point_2d":
    {
      "lon": 7.08424689573,
      "lat": 49.9915713604
    }
  },
  {
    "name": "45892",
    "plz_name": "Gelsenkirchen",
    "geo_point_2d":
    {
      "lon": 7.11208316651,
      "lat": 51.5713069442
    }
  },
  {
    "name": "45879",
    "plz_name": "Gelsenkirchen",
    "geo_point_2d":
    {
      "lon": 7.09506949706,
      "lat": 51.505960846
    }
  },
  {
    "name": "53175",
    "plz_name": "Bonn",
    "geo_point_2d":
    {
      "lon": 7.13507562072,
      "lat": 50.6973140301
    }
  },
  {
    "name": "56814",
    "plz_name": "Ediger-Eller",
    "geo_point_2d":
    {
      "lon": 7.15389305415,
      "lat": 50.1971268439
    }
  },
  {
    "name": "53113",
    "plz_name": "Bonn",
    "geo_point_2d":
    {
      "lon": 7.11976835834,
      "lat": 50.7197450423
    }
  },
  {
    "name": "48607",
    "plz_name": "Ochtrup",
    "geo_point_2d":
    {
      "lon": 7.18246741507,
      "lat": 52.2132157447
    }
  },
  {
    "name": "55765",
    "plz_name": "Birkenfeld u.a.",
    "geo_point_2d":
    {
      "lon": 7.16754558371,
      "lat": 49.6400666297
    }
  },
  {
    "name": "53173",
    "plz_name": "Bonn",
    "geo_point_2d":
    {
      "lon": 7.16295928886,
      "lat": 50.6889888148
    }
  },
  {
    "name": "42107",
    "plz_name": "Wuppertal",
    "geo_point_2d":
    {
      "lon": 7.15569353545,
      "lat": 51.2637066349
    }
  },
  {
    "name": "42855",
    "plz_name": "Remscheid",
    "geo_point_2d":
    {
      "lon": 7.19638994568,
      "lat": 51.1953198135
    }
  },
  {
    "name": "53797",
    "plz_name": "Lohmar",
    "geo_point_2d":
    {
      "lon": 7.24830582273,
      "lat": 50.8655959219
    }
  },
  {
    "name": "44628",
    "plz_name": "Herne",
    "geo_point_2d":
    {
      "lon": 7.24418136915,
      "lat": 51.5572271631
    }
  },
  {
    "name": "44803",
    "plz_name": "Bochum",
    "geo_point_2d":
    {
      "lon": 7.26038583372,
      "lat": 51.4716835236
    }
  },
  {
    "name": "56659",
    "plz_name": "Burgbrohl",
    "geo_point_2d":
    {
      "lon": 7.26653165469,
      "lat": 50.4582762154
    }
  },
  {
    "name": "47652",
    "plz_name": "Weeze",
    "geo_point_2d":
    {
      "lon": 6.18234619407,
      "lat": 51.6210996585
    }
  },
  {
    "name": "52159",
    "plz_name": "Roetgen",
    "geo_point_2d":
    {
      "lon": 6.22747821892,
      "lat": 50.6711375517
    }
  },
  {
    "name": "52156",
    "plz_name": "Monschau",
    "geo_point_2d":
    {
      "lon": 6.19646263322,
      "lat": 50.5252068785
    }
  },
  {
    "name": "52457",
    "plz_name": "Aldenhoven",
    "geo_point_2d":
    {
      "lon": 6.2612536446,
      "lat": 50.8982100433
    }
  },
  {
    "name": "47495",
    "plz_name": "Rheinberg",
    "geo_point_2d":
    {
      "lon": 6.61001734136,
      "lat": 51.5560071539
    }
  },
  {
    "name": "66780",
    "plz_name": "Rehlingen-Siersburg",
    "geo_point_2d":
    {
      "lon": 6.6249483572,
      "lat": 49.374297522
    }
  },
  {
    "name": "54298",
    "plz_name": "Welschbillig, Igel, Aach",
    "geo_point_2d":
    {
      "lon": 6.59777385226,
      "lat": 49.7884306133
    }
  },
  {
    "name": "41472",
    "plz_name": "Neuss",
    "geo_point_2d":
    {
      "lon": 6.6537606148,
      "lat": 51.1589512542
    }
  },
  {
    "name": "54314",
    "plz_name": "Zerf",
    "geo_point_2d":
    {
      "lon": 6.68885746387,
      "lat": 49.5915012853
    }
  },
  {
    "name": "47167",
    "plz_name": "Duisburg",
    "geo_point_2d":
    {
      "lon": 6.80025565345,
      "lat": 51.5002064679
    }
  },
  {
    "name": "40233",
    "plz_name": "Düsseldorf",
    "geo_point_2d":
    {
      "lon": 6.81119685485,
      "lat": 51.2220778242
    }
  },
  {
    "name": "41539",
    "plz_name": "Dormagen",
    "geo_point_2d":
    {
      "lon": 6.84745923391,
      "lat": 51.1015527373
    }
  },
  {
    "name": "54426",
    "plz_name": "Malborn",
    "geo_point_2d":
    {
      "lon": 6.93688533907,
      "lat": 49.7786940927
    }
  },
  {
    "name": "50667",
    "plz_name": "Köln",
    "geo_point_2d":
    {
      "lon": 6.95506986959,
      "lat": 50.9386556776
    }
  },
  {
    "name": "45145",
    "plz_name": "Essen",
    "geo_point_2d":
    {
      "lon": 6.97631009431,
      "lat": 51.4465703338
    }
  },
  {
    "name": "54426",
    "plz_name": "Malborn",
    "geo_point_2d":
    {
      "lon": 7.02571986821,
      "lat": 49.7674851769
    }
  },
  {
    "name": "66133",
    "plz_name": "Saarbrücken",
    "geo_point_2d":
    {
      "lon": 7.06441005898,
      "lat": 49.246042277
    }
  },
  {
    "name": "85057",
    "plz_name": "Ingolstadt",
    "geo_point_2d":
    {
      "lon": 11.4044654037,
      "lat": 48.7801719807
    }
  },
  {
    "name": "99510",
    "plz_name": "Apolda",
    "geo_point_2d":
    {
      "lon": 11.5001460611,
      "lat": 51.0315950604
    }
  },
  {
    "name": "85304",
    "plz_name": "Ilmmünster",
    "geo_point_2d":
    {
      "lon": 11.5148814495,
      "lat": 48.4900948667
    }
  },
  {
    "name": "83646",
    "plz_name": "Bad Tölz, Wackersberg",
    "geo_point_2d":
    {
      "lon": 11.5337183197,
      "lat": 47.7544915263
    }
  },
  {
    "name": "83623",
    "plz_name": "Dietramszell",
    "geo_point_2d":
    {
      "lon": 11.5754195873,
      "lat": 47.8690927621
    }
  },
  {
    "name": "80992",
    "plz_name": "München",
    "geo_point_2d":
    {
      "lon": 11.5180846035,
      "lat": 48.1747785429
    }
  },
  {
    "name": "07751",
    "plz_name": "Jena, Bucha, Großpürschütz u.a.",
    "geo_point_2d":
    {
      "lon": 11.5202429249,
      "lat": 50.9273429169
    }
  },
  {
    "name": "95339",
    "plz_name": "Neuenmarkt",
    "geo_point_2d":
    {
      "lon": 11.5929024391,
      "lat": 50.1051048564
    }
  },
  {
    "name": "85126",
    "plz_name": "Münchsmünster",
    "geo_point_2d":
    {
      "lon": 11.6761164058,
      "lat": 48.7651632103
    }
  },
  {
    "name": "07806",
    "plz_name": "Neustadt/ Orla",
    "geo_point_2d":
    {
      "lon": 11.7339394615,
      "lat": 50.7220019014
    }
  },
  {
    "name": "93333",
    "plz_name": "Neustadt a.d. Donau",
    "geo_point_2d":
    {
      "lon": 11.7552523112,
      "lat": 48.7964401078
    }
  },
  {
    "name": "85406",
    "plz_name": "Zolling",
    "geo_point_2d":
    {
      "lon": 11.7680055709,
      "lat": 48.4685038966
    }
  },
  {
    "name": "85445",
    "plz_name": "Oberding",
    "geo_point_2d":
    {
      "lon": 11.8277013563,
      "lat": 48.3287553615
    }
  },
  {
    "name": "85417",
    "plz_name": "Marzling",
    "geo_point_2d":
    {
      "lon": 11.8064295866,
      "lat": 48.4054789166
    }
  },
  {
    "name": "95191",
    "plz_name": "Leupoldsgrün",
    "geo_point_2d":
    {
      "lon": 11.7987547431,
      "lat": 50.2945230657
    }
  },
  {
    "name": "18239",
    "plz_name": "Satow",
    "geo_point_2d":
    {
      "lon": 11.906503329,
      "lat": 53.9992815366
    }
  },
  {
    "name": "06388",
    "plz_name": "Südliches Anhalt, Köthen",
    "geo_point_2d":
    {
      "lon": 11.9211162654,
      "lat": 51.6892092964
    }
  },
  {
    "name": "06369",
    "plz_name": "Südliches Anhalt u.a.",
    "geo_point_2d":
    {
      "lon": 11.8916409941,
      "lat": 51.7268863336
    }
  },
  {
    "name": "95508",
    "plz_name": "Kulmain",
    "geo_point_2d":
    {
      "lon": 11.9097336762,
      "lat": 49.9144115566
    }
  },
  {
    "name": "06120",
    "plz_name": "Halle/ Saale",
    "geo_point_2d":
    {
      "lon": 11.905807963,
      "lat": 51.5082461102
    }
  },
  {
    "name": "93342",
    "plz_name": "Saal a.d. Donau",
    "geo_point_2d":
    {
      "lon": 11.9306230541,
      "lat": 48.8685200348
    }
  },
  {
    "name": "98587",
    "plz_name": "Steinbach-Hallenberg",
    "geo_point_2d":
    {
      "lon": 10.5945015946,
      "lat": 50.7014121088
    }
  },
  {
    "name": "23860",
    "plz_name": "Klein Wesenberg",
    "geo_point_2d":
    {
      "lon": 10.5600737038,
      "lat": 53.8011067073
    }
  },
  {
    "name": "38102",
    "plz_name": "Braunschweig",
    "geo_point_2d":
    {
      "lon": 10.536820206,
      "lat": 52.2578569943
    }
  },
  {
    "name": "38524",
    "plz_name": "Sassenburg",
    "geo_point_2d":
    {
      "lon": 10.6473831857,
      "lat": 52.5325161418
    }
  },
  {
    "name": "23560",
    "plz_name": "Lübeck",
    "geo_point_2d":
    {
      "lon": 10.640232604,
      "lat": 53.815723168
    }
  },
  {
    "name": "38700",
    "plz_name": "Braunlage",
    "geo_point_2d":
    {
      "lon": 10.629856076,
      "lat": 51.7086816388
    }
  },
  {
    "name": "91743",
    "plz_name": "Unterschwaningen",
    "geo_point_2d":
    {
      "lon": 10.6190128038,
      "lat": 49.0923024499
    }
  },
  {
    "name": "87659",
    "plz_name": "Hopferau",
    "geo_point_2d":
    {
      "lon": 10.6440311177,
      "lat": 47.6082347478
    }
  },
  {
    "name": "38170",
    "plz_name": "Schöppenstedt",
    "geo_point_2d":
    {
      "lon": 10.7829610639,
      "lat": 52.1348020887
    }
  },
  {
    "name": "96170",
    "plz_name": "Lisberg",
    "geo_point_2d":
    {
      "lon": 10.7193677443,
      "lat": 49.896810161
    }
  },
  {
    "name": "23744",
    "plz_name": "Schönwalde am Bungsberg",
    "geo_point_2d":
    {
      "lon": 10.7664363508,
      "lat": 54.1979946041
    }
  },
  {
    "name": "98559",
    "plz_name": "Oberhof",
    "geo_point_2d":
    {
      "lon": 10.7047771069,
      "lat": 50.6796093006
    }
  },
  {
    "name": "23569",
    "plz_name": "Lübeck",
    "geo_point_2d":
    {
      "lon": 10.8090953096,
      "lat": 53.914234987
    }
  },
  {
    "name": "86983",
    "plz_name": "Lechbruck",
    "geo_point_2d":
    {
      "lon": 10.7835540074,
      "lat": 47.6919575205
    }
  },
  {
    "name": "21371",
    "plz_name": "Tosterglope",
    "geo_point_2d":
    {
      "lon": 10.8244426499,
      "lat": 53.208327767
    }
  },
  {
    "name": "91086",
    "plz_name": "Aurachtal",
    "geo_point_2d":
    {
      "lon": 10.8175458419,
      "lat": 49.5798509236
    }
  },
  {
    "name": "98693",
    "plz_name": "Ilmenau",
    "geo_point_2d":
    {
      "lon": 10.9301094851,
      "lat": 50.6871618378
    }
  },
  {
    "name": "96049",
    "plz_name": "Bamberg",
    "geo_point_2d":
    {
      "lon": 10.8769178344,
      "lat": 49.8771409671
    }
  },
  {
    "name": "38154",
    "plz_name": "Königslutter am Elm",
    "geo_point_2d":
    {
      "lon": 10.8470805647,
      "lat": 52.1865117662
    }
  },
  {
    "name": "38382",
    "plz_name": "Beierstedt",
    "geo_point_2d":
    {
      "lon": 10.8534449813,
      "lat": 52.0671188134
    }
  },
  {
    "name": "86694",
    "plz_name": "Niederschönenfeld",
    "geo_point_2d":
    {
      "lon": 10.9207510858,
      "lat": 48.7222115331
    }
  },
  {
    "name": "86931",
    "plz_name": "Prittriching",
    "geo_point_2d":
    {
      "lon": 10.9255455551,
      "lat": 48.2004429425
    }
  },
  {
    "name": "82409",
    "plz_name": "Wildsteig",
    "geo_point_2d":
    {
      "lon": 10.9437826229,
      "lat": 47.668332608
    }
  },
  {
    "name": "96231",
    "plz_name": "Staffelstein",
    "geo_point_2d":
    {
      "lon": 11.0211029326,
      "lat": 50.1002336288
    }
  },
  {
    "name": "90765",
    "plz_name": "Fürth",
    "geo_point_2d":
    {
      "lon": 10.9964815366,
      "lat": 49.5030629912
    }
  },
  {
    "name": "99638",
    "plz_name": "Kindelbrück",
    "geo_point_2d":
    {
      "lon": 11.0948313135,
      "lat": 51.2486585486
    }
  },
  {
    "name": "82380",
    "plz_name": "Peißenberg",
    "geo_point_2d":
    {
      "lon": 11.0639886948,
      "lat": 47.7929948218
    }
  },
  {
    "name": "12059",
    "plz_name": "Berlin Neukölln",
    "geo_point_2d":
    {
      "lon": 13.4522035145,
      "lat": 52.4801366381
    }
  },
  {
    "name": "10369",
    "plz_name": "Berlin Lichtenberg",
    "geo_point_2d":
    {
      "lon": 13.4693779863,
      "lat": 52.5294389119
    }
  },
  {
    "name": "94078",
    "plz_name": "Freyung",
    "geo_point_2d":
    {
      "lon": 13.5511459922,
      "lat": 48.8203349905
    }
  },
  {
    "name": "12555",
    "plz_name": "Berlin Köpenik",
    "geo_point_2d":
    {
      "lon": 13.5788432622,
      "lat": 52.4628491228
    }
  },
  {
    "name": "01156",
    "plz_name": "Dresden",
    "geo_point_2d":
    {
      "lon": 13.6212717295,
      "lat": 51.0658278379
    }
  },
  {
    "name": "01445",
    "plz_name": "Radebeul",
    "geo_point_2d":
    {
      "lon": 13.6410358201,
      "lat": 51.1133031574
    }
  },
  {
    "name": "15748",
    "plz_name": "Märkisch Buchholz",
    "geo_point_2d":
    {
      "lon": 13.8117307049,
      "lat": 52.1314088226
    }
  },
  {
    "name": "01809",
    "plz_name": "Heidenau",
    "geo_point_2d":
    {
      "lon": 13.8417324545,
      "lat": 50.9460081765
    }
  },
  {
    "name": "01237",
    "plz_name": "Dresden",
    "geo_point_2d":
    {
      "lon": 13.7987057853,
      "lat": 51.017572394
    }
  },
  {
    "name": "17321",
    "plz_name": "Löcknitz, Rothenklempenow",
    "geo_point_2d":
    {
      "lon": 14.2412953229,
      "lat": 53.4811512445
    }
  },
  {
    "name": "02959",
    "plz_name": "Schleife",
    "geo_point_2d":
    {
      "lon": 14.52254531,
      "lat": 51.5234403372
    }
  },
  {
    "name": "02943",
    "plz_name": "Weißwasser, Boxberg",
    "geo_point_2d":
    {
      "lon": 14.6817731152,
      "lat": 51.4891610128
    }
  },
  {
    "name": "02923",
    "plz_name": "Hähnichen, Horka, Kodersdorf",
    "geo_point_2d":
    {
      "lon": 14.8827359799,
      "lat": 51.3013531169
    }
  },
  {
    "name": "39435",
    "plz_name": "Egeln, Borne, Wolmirsleben u.a.",
    "geo_point_2d":
    {
      "lon": 11.4884008546,
      "lat": 51.9415489282
    }
  },
  {
    "name": "91217",
    "plz_name": "Hersbruck",
    "geo_point_2d":
    {
      "lon": 11.4274441052,
      "lat": 49.5063355467
    }
  },
  {
    "name": "83670",
    "plz_name": "Bad Heilbrunn",
    "geo_point_2d":
    {
      "lon": 11.4507068351,
      "lat": 47.7546638968
    }
  },
  {
    "name": "80689",
    "plz_name": "München",
    "geo_point_2d":
    {
      "lon": 11.4853266966,
      "lat": 48.130841434
    }
  },
  {
    "name": "80687",
    "plz_name": "München",
    "geo_point_2d":
    {
      "lon": 11.5060222842,
      "lat": 48.1413156899
    }
  },
  {
    "name": "85411",
    "plz_name": "Hohenkammer",
    "geo_point_2d":
    {
      "lon": 11.5335040631,
      "lat": 48.4258176316
    }
  },
  {
    "name": "39418",
    "plz_name": "Staßfurt",
    "geo_point_2d":
    {
      "lon": 11.5835180136,
      "lat": 51.8385860429
    }
  },
  {
    "name": "95494",
    "plz_name": "Gesees",
    "geo_point_2d":
    {
      "lon": 11.5394623683,
      "lat": 49.8987887374
    }
  },
  {
    "name": "07389",
    "plz_name": "Ranis",
    "geo_point_2d":
    {
      "lon": 11.5697468103,
      "lat": 50.6374776782
    }
  },
  {
    "name": "19417",
    "plz_name": "Warin",
    "geo_point_2d":
    {
      "lon": 11.6696184205,
      "lat": 53.8003721275
    }
  },
  {
    "name": "85290",
    "plz_name": "Geisenfeld",
    "geo_point_2d":
    {
      "lon": 11.6199707345,
      "lat": 48.6838524233
    }
  },
  {
    "name": "82024",
    "plz_name": "Taufkirchen",
    "geo_point_2d":
    {
      "lon": 11.632898628,
      "lat": 48.0329841584
    }
  },
  {
    "name": "92280",
    "plz_name": "Kastl",
    "geo_point_2d":
    {
      "lon": 11.6885598241,
      "lat": 49.3648947348
    }
  },
  {
    "name": "95236",
    "plz_name": "Stammbach",
    "geo_point_2d":
    {
      "lon": 11.7011239268,
      "lat": 50.1474367028
    }
  },
  {
    "name": "06406",
    "plz_name": "Bernburg (Saale)",
    "geo_point_2d":
    {
      "lon": 11.7669363514,
      "lat": 51.7741335343
    }
  },
  {
    "name": "95213",
    "plz_name": "Münchberg",
    "geo_point_2d":
    {
      "lon": 11.7626670019,
      "lat": 50.1955165627
    }
  },
  {
    "name": "39579",
    "plz_name": "Rochau",
    "geo_point_2d":
    {
      "lon": 11.7693235998,
      "lat": 52.7058952093
    }
  },
  {
    "name": "84104",
    "plz_name": "Rudelzhausen",
    "geo_point_2d":
    {
      "lon": 11.783355919,
      "lat": 48.587436542
    }
  },
  {
    "name": "95152",
    "plz_name": "Selbitz",
    "geo_point_2d":
    {
      "lon": 11.7547973084,
      "lat": 50.3210744422
    }
  },
  {
    "name": "39217",
    "plz_name": "Schönebeck (Elbe)",
    "geo_point_2d":
    {
      "lon": 11.7515514594,
      "lat": 52.0845514587
    }
  },
  {
    "name": "85464",
    "plz_name": "Finsing",
    "geo_point_2d":
    {
      "lon": 11.7957930617,
      "lat": 48.2312118146
    }
  },
  {
    "name": "85591",
    "plz_name": "Vaterstetten",
    "geo_point_2d":
    {
      "lon": 11.7735761699,
      "lat": 48.1120303798
    }
  },
  {
    "name": "93358",
    "plz_name": "Train",
    "geo_point_2d":
    {
      "lon": 11.8245578325,
      "lat": 48.727419162
    }
  },
  {
    "name": "83620",
    "plz_name": "Feldkirchen-Westerham",
    "geo_point_2d":
    {
      "lon": 11.8631682749,
      "lat": 47.9116058108
    }
  },
  {
    "name": "19376",
    "plz_name": "Marnitz, Siggelkow",
    "geo_point_2d":
    {
      "lon": 11.9442220706,
      "lat": 53.3464344362
    }
  },
  {
    "name": "85614",
    "plz_name": "Kirchseeon",
    "geo_point_2d":
    {
      "lon": 11.8830304264,
      "lat": 48.0864235634
    }
  },
  {
    "name": "82398",
    "plz_name": "Polling",
    "geo_point_2d":
    {
      "lon": 11.1311102029,
      "lat": 47.811951728
    }
  },
  {
    "name": "91332",
    "plz_name": "Heiligenstadt i. OFr.",
    "geo_point_2d":
    {
      "lon": 11.1512097955,
      "lat": 49.874885153
    }
  },
  {
    "name": "86577",
    "plz_name": "Sielenbach",
    "geo_point_2d":
    {
      "lon": 11.1634522177,
      "lat": 48.3912209279
    }
  },
  {
    "name": "82499",
    "plz_name": "Wallgau",
    "geo_point_2d":
    {
      "lon": 11.2759407456,
      "lat": 47.5417013839
    }
  },
  {
    "name": "82239",
    "plz_name": "Alling",
    "geo_point_2d":
    {
      "lon": 11.2790015564,
      "lat": 48.1430833208
    }
  },
  {
    "name": "29485",
    "plz_name": "Lemgow",
    "geo_point_2d":
    {
      "lon": 11.3225026748,
      "lat": 52.9127513401
    }
  },
  {
    "name": "86567",
    "plz_name": "Hilgertshausen-Tandern",
    "geo_point_2d":
    {
      "lon": 11.3270374392,
      "lat": 48.4320784619
    }
  },
  {
    "name": "06467",
    "plz_name": "Seeland",
    "geo_point_2d":
    {
      "lon": 11.3051068914,
      "lat": 51.7829357157
    }
  },
  {
    "name": "82444",
    "plz_name": "Schlehdorf",
    "geo_point_2d":
    {
      "lon": 11.3078010177,
      "lat": 47.6451987218
    }
  },
  {
    "name": "86579",
    "plz_name": "Waidhofen",
    "geo_point_2d":
    {
      "lon": 11.3359861372,
      "lat": 48.5780182481
    }
  },
  {
    "name": "96352",
    "plz_name": "Wilhelmsthal",
    "geo_point_2d":
    {
      "lon": 11.3833601497,
      "lat": 50.3185803363
    }
  },
  {
    "name": "19061",
    "plz_name": "Schwerin",
    "geo_point_2d":
    {
      "lon": 11.4134667993,
      "lat": 53.5846101426
    }
  },
  {
    "name": "06682",
    "plz_name": "Teuchern",
    "geo_point_2d":
    {
      "lon": 12.0023516956,
      "lat": 51.1274529979
    }
  },
  {
    "name": "06118",
    "plz_name": "Halle/ Saale",
    "geo_point_2d":
    {
      "lon": 11.9852116606,
      "lat": 51.5203060692
    }
  },